[{"stopId":"5179404","name":"Сады Автомобилист (пр)","bearing":144,"stopType":1,"address":"М8, Бобовичский сельский Совет","point":{"lat":52.341574990180426,"lon":30.84087598323822}},{"stopId":"5178380","name":"Сады Автомобилист (обр)","bearing":320,"stopType":1,"address":"М8, Бобовичский сельский Совет","point":{"lat":52.34215549156791,"lon":30.84063482284546}},{"stopId":"6076428","name":"пов.дачи РАТОН","bearing":174,"stopType":1,"address":"Н4100, Приборский сельский Совет","point":{"lat":52.35142957703296,"lon":30.797619746017457}},{"stopId":"6077452","name":"пов.дачи РАТОН","bearing":349,"stopType":1,"address":"Н4100, Приборский сельский Совет","point":{"lat":52.354161687502405,"lon":30.79722309112549}},{"stopId":"11396108","name":"Зеленая Дубрава","bearing":79,"stopType":1,"address":", Зябровский сельский Совет","point":{"lat":52.34338588159673,"lon":31.2145315864563}},{"stopId":"5262348","name":"ул. Дружбы","bearing":126,"stopType":1,"address":"улица Дружбы, Жгунский сельский Совет","point":{"lat":52.35445630625219,"lon":31.254024505615234}},{"stopId":"5263372","name":"ул. Дружбы","bearing":302,"stopType":1,"address":"улица Дружбы, Жгунский сельский Совет","point":{"lat":52.35497456068516,"lon":31.253337383270264}},{"stopId":"10716172","name":"Жгуно-Буда","bearing":305,"stopType":1,"address":"Школьная улица, Жгунский сельский Совет","point":{"lat":52.35341645153527,"lon":31.25755548477173}},{"stopId":"10717196","name":"Жгуно-Буда","bearing":118,"stopType":1,"address":"Школьная улица, Жгунский сельский Совет","point":{"lat":52.35322086342759,"lon":31.257389664649963}},{"stopId":"4722712","name":"Дударево","bearing":0,"stopType":3,"address":", Улуковский сельский Совет","point":{"lat":52.3889474,"lon":31.2188063}},{"stopId":"445452","name":"Дачи","bearing":294,"stopType":1,"address":"улица Дружбы, Жгунский сельский Совет","point":{"lat":52.35865822981411,"lon":31.24049000530243}},{"stopId":"446476","name":"Дачи","bearing":114,"stopType":1,"address":"улица Дружбы, Жгунский сельский Совет","point":{"lat":52.35839785296513,"lon":31.240410447120667}},{"stopId":"11226124","name":"Дудорево","bearing":276,"stopType":1,"address":", Улуковский сельский Совет","point":{"lat":52.38715340971445,"lon":31.233529567718506}},{"stopId":"11227148","name":"Дудорево","bearing":100,"stopType":1,"address":", Улуковский сельский Совет","point":{"lat":52.38672478605176,"lon":31.23675310611725}},{"stopId":"11228172","name":"Ларищево","bearing":102,"stopType":1,"address":"М10, Носовичский сельский Совет","point":{"lat":52.39116391181728,"lon":31.214308738708496}},{"stopId":"11229196","name":"Ларищево","bearing":286,"stopType":1,"address":"М10, Носовичский сельский Совет","point":{"lat":52.391404643319916,"lon":31.21390151977539}},{"stopId":"11274252","name":"с/х Добрушский","bearing":94,"stopType":1,"address":", Рассветовский сельский Совет","point":{"lat":52.38566919633137,"lon":31.261000275611877}},{"stopId":"11275276","name":"с/х Добрушский","bearing":271,"stopType":1,"address":", Рассветовский сельский Совет","point":{"lat":52.38595455511882,"lon":31.260051608085632}},{"stopId":"5208076","name":"Опытный Лесхоз","bearing":166,"stopType":1,"address":"Кореневка — Рудня Прибытковская, Прибытковский сельский Совет","point":{"lat":52.340000107783,"lon":31.116566584396363}},{"stopId":"5209100","name":"Опытный Лесхоз","bearing":345,"stopType":1,"address":"Кореневка — Рудня Прибытковская, Прибытковский сельский Совет","point":{"lat":52.34055024143447,"lon":31.116759538650513}},{"stopId":"5100568","name":"Коренёвка","bearing":0,"stopType":3,"address":", Зябровский сельский Совет","point":{"lat":52.354145,"lon":31.1175205}},{"stopId":"11296780","name":"Кореневка","bearing":315,"stopType":1,"address":"Молодёжная улица, Зябровский сельский Совет","point":{"lat":52.353141150470954,"lon":31.111005902290344}},{"stopId":"11297804","name":"Кореневка","bearing":135,"stopType":1,"address":"Шоссейная улица, Зябровский сельский Совет","point":{"lat":52.35308788211114,"lon":31.11052930355072}},{"stopId":"5540888","name":"Плёсы","bearing":0,"stopType":3,"address":", Поколюбичский сельский Совет","point":{"lat":52.4557961,"lon":31.0729144}},{"stopId":"5544984","name":"Ипуть","bearing":0,"stopType":3,"address":"посёлок Ипуть, Улуковский сельский Совет","point":{"lat":52.4040801,"lon":31.089863}},{"stopId":"3110924","name":"Красный Маяк","bearing":242,"stopType":1,"address":"улица Красный Маяк, Гомель","point":{"lat":52.42550441657551,"lon":31.079702854156494}},{"stopId":"3111948","name":"Красный Маяк","bearing":61,"stopType":1,"address":"улица Красный Маяк, Гомель","point":{"lat":52.42550328314579,"lon":31.08027219772339}},{"stopId":"4724760","name":"Берёзки","bearing":0,"stopType":3,"address":"Станционная улица, Улуковский сельский Совет","point":{"lat":52.3917251,"lon":31.1006658}},{"stopId":"3385356","name":"Станция \"Ипуть\"","bearing":88,"stopType":1,"address":"Добрушская улица, Гомель","point":{"lat":52.402529806210765,"lon":31.08443820476532}},{"stopId":"3386380","name":"Станция \"Ипуть\"","bearing":267,"stopType":1,"address":"Добрушская улица, Гомель","point":{"lat":52.402649056027,"lon":31.084394931793213}},{"stopId":"10968076","name":"д.Березки","bearing":83,"stopType":1,"address":"Цветочная улица, Улуковский сельский Совет","point":{"lat":52.399138067725,"lon":31.10116004939192}},{"stopId":"10970124","name":"д.Березки","bearing":247,"stopType":1,"address":"Тепличный переулок, Улуковский сельский Совет","point":{"lat":52.39950368419732,"lon":31.100799679756165}},{"stopId":"10971148","name":"пос.Юбилейный","bearing":294,"stopType":1,"address":"пос. Юбилейный, Улуковский сельский Совет","point":{"lat":52.397558128442455,"lon":31.08594501018524}},{"stopId":"10972172","name":"пос.Юбилейный","bearing":109,"stopType":1,"address":"пос. Юбилейный, Улуковский сельский Совет","point":{"lat":52.39762944758459,"lon":31.0844589471817}},{"stopId":"10973196","name":"пос.Победа","bearing":92,"stopType":1,"address":"Центральная улица, Улуковский сельский Совет","point":{"lat":52.398491337916006,"lon":31.075194239616394}},{"stopId":"10974220","name":"пос.Победа","bearing":272,"stopType":1,"address":"Центральная улица, Улуковский сельский Совет","point":{"lat":52.39872989595106,"lon":31.073338270187378}},{"stopId":"1391628","name":"ул. Родная","bearing":273,"stopType":1,"address":"улица Красный Маяк, Гомель","point":{"lat":52.42627210824626,"lon":31.100859568405152}},{"stopId":"11223052","name":"Улуковье","bearing":274,"stopType":1,"address":"Молодёжная улица, Улуковский сельский Совет","point":{"lat":52.39903432696359,"lon":31.11746382713318}},{"stopId":"11224076","name":"Улуковье","bearing":95,"stopType":1,"address":", Улуковский сельский Совет","point":{"lat":52.39870588658606,"lon":31.11936378479004}},{"stopId":"4972556","name":"Переезд","bearing":93,"stopType":1,"address":"Н4901, Гомель","point":{"lat":52.42614893686058,"lon":31.092786119270325}},{"stopId":"11353100","name":"п. Рассвет","bearing":247,"stopType":1,"address":"улица Тимирязева, Рассветовский сельский Совет","point":{"lat":52.38750483571317,"lon":31.30178928375244}},{"stopId":"6300684","name":"ул. Туровская приб.","bearing":243,"stopType":1,"address":"улица Полякова И.Е., Гомель","point":{"lat":52.44050513325378,"lon":31.137294695663453}},{"stopId":"4025356","name":"Головинцы (приб.)","bearing":30,"stopType":1,"address":", Улуковский сельский Совет","point":{"lat":52.397245527375375,"lon":31.12722384929657}},{"stopId":"4243468","name":"д. Головинцы","bearing":10,"stopType":1,"address":"Советская улица, Улуковский сельский Совет","point":{"lat":52.40814382997126,"lon":31.1443274477005}},{"stopId":"3281932","name":"Новый Двор","bearing":307,"stopType":1,"address":"Садовая улица, Улуковский сельский Совет","point":{"lat":52.39541894379754,"lon":31.133344531059265}},{"stopId":"3282956","name":"Новый Двор","bearing":117,"stopType":1,"address":"Садовая улица, Улуковский сельский Совет","point":{"lat":52.394415134491084,"lon":31.136016845703125}},{"stopId":"4723736","name":"Ларищево","bearing":0,"stopType":3,"address":", Улуковский сельский Совет","point":{"lat":52.3892028,"lon":31.1681472}},{"stopId":"11225100","name":"д. Головинцы","bearing":194,"stopType":1,"address":"Советская улица, Улуковский сельский Совет","point":{"lat":52.40804997969325,"lon":31.14420223236084}},{"stopId":"11230220","name":"Медвежий лог","bearing":87,"stopType":1,"address":", Улуковский сельский Совет","point":{"lat":52.39028874187612,"lon":31.175310134887695}},{"stopId":"11231244","name":"Медвежий лог","bearing":263,"stopType":1,"address":"Советская улица, Улуковский сельский Совет","point":{"lat":52.39044807167951,"lon":31.17372715473175}},{"stopId":"11232268","name":"Головинцы","bearing":244,"stopType":1,"address":", Улуковский сельский Совет","point":{"lat":52.39757730676789,"lon":31.12645149230957}},{"stopId":"5541912","name":"Клёнки","bearing":0,"stopType":3,"address":"улица Юрия Гагарина, Улуковский сельский Совет","point":{"lat":52.4522831,"lon":31.0787646}},{"stopId":"5542936","name":"Будотень","bearing":0,"stopType":3,"address":"Н4102, Гомель","point":{"lat":52.438732,"lon":31.0874437}},{"stopId":"5543960","name":"Романовичи","bearing":0,"stopType":3,"address":"Н4901, Гомель","point":{"lat":52.4266858,"lon":31.0918638}},{"stopId":"3105804","name":"ул. Каменецкая","bearing":142,"stopType":1,"address":"Красносельская улица, Гомель","point":{"lat":52.43347822967289,"lon":31.0805926322937}},{"stopId":"3106828","name":"ул. Невская","bearing":338,"stopType":1,"address":"Спортивная улица, Гомель","point":{"lat":52.43139032910071,"lon":31.082416534423828}},{"stopId":"3107852","name":"ул. Невская","bearing":159,"stopType":1,"address":"Красносельская улица, Гомель","point":{"lat":52.43066750790522,"lon":31.082770586013794}},{"stopId":"3108876","name":"ул. Красносельская","bearing":343,"stopType":1,"address":"Красносельская улица, Гомель","point":{"lat":52.427843552610454,"lon":31.08478808403015}},{"stopId":"3109900","name":"ул. Красносельская","bearing":157,"stopType":1,"address":"Красносельская улица, Гомель","point":{"lat":52.427210662561826,"lon":31.08506214618683}},{"stopId":"3112972","name":"пов. Романовичи","bearing":127,"stopType":1,"address":"улица Красный Маяк, Гомель","point":{"lat":52.425710993948684,"lon":31.070273637771606}},{"stopId":"3113996","name":"пов. Романовичи","bearing":308,"stopType":1,"address":"улица Красный Маяк, Гомель","point":{"lat":52.426076168185865,"lon":31.069929838180542}},{"stopId":"3117068","name":"ул. Каштановая","bearing":82,"stopType":1,"address":"Каштановая аллея, Гомель","point":{"lat":52.43815196447471,"lon":31.085828469085694}},{"stopId":"987148","name":"ул. Каштановая","bearing":236,"stopType":1,"address":"улица Луначарского, Гомель","point":{"lat":52.43834651248471,"lon":31.085549519348145}},{"stopId":"135180","name":"ул. Престижная","bearing":34,"stopType":1,"address":"Спортивная улица, Гомель","point":{"lat":52.43388974517162,"lon":31.080335305023194}},{"stopId":"4981772","name":"Переезд","bearing":268,"stopType":1,"address":"Н4901, Гомель","point":{"lat":52.42624013913653,"lon":31.091504216194153}},{"stopId":"11405324","name":"ул.Туровская отпр.","bearing":240,"stopType":1,"address":"улица Полякова И.Е., Гомель","point":{"lat":52.44038009643555,"lon":31.136877059936523}},{"stopId":"11406348","name":"ул. В.А. Маркелова","bearing":272,"stopType":1,"address":"улица Полякова И.Е., Гомель","point":{"lat":52.43706628704495,"lon":31.12550938129425}},{"stopId":"11407372","name":"ул. Калача","bearing":270,"stopType":1,"address":"улица Полякова И.Е., Гомель","point":{"lat":52.43703299505245,"lon":31.118578672409058}},{"stopId":"11408396","name":"ул. Калача","bearing":92,"stopType":1,"address":"улица Полякова И.Е., Гомель","point":{"lat":52.4368689111957,"lon":31.119576454162598}},{"stopId":"11409420","name":"ул. Нарочанская","bearing":60,"stopType":1,"address":"улица Полякова И.Е., Гомель","point":{"lat":52.438928695188466,"lon":31.1329026222229}},{"stopId":"5838860","name":"ул. Новаторская","bearing":48,"stopType":1,"address":"Новаторская улица, Гомель","point":{"lat":52.43215761358113,"lon":31.104035303878785}},{"stopId":"5839884","name":"ул. Музыкальная","bearing":183,"stopType":1,"address":"Музыкальная улица, Гомель","point":{"lat":52.42900085449219,"lon":31.101394653320312}},{"stopId":"5840908","name":"ул. Кузнечная","bearing":50,"stopType":1,"address":"Кузнечная улица, Гомель","point":{"lat":52.43352905400824,"lon":31.106583402442933}},{"stopId":"5841932","name":"ул. Кузнечная","bearing":230,"stopType":1,"address":"улица Полякова, Гомель","point":{"lat":52.43338983716664,"lon":31.106063842773438}},{"stopId":"5842956","name":"ул. Полякова","bearing":52,"stopType":1,"address":"улица Полякова, Гомель","point":{"lat":52.43618392944336,"lon":31.11160659790039}},{"stopId":"5843980","name":"ул. Музыкальная","bearing":0,"stopType":1,"address":"Музыкальная улица, Гомель","point":{"lat":52.42742156982422,"lon":31.101459503173828}},{"stopId":"5846028","name":"ул. Полякова","bearing":231,"stopType":1,"address":"Монтажная улица, Гомель","point":{"lat":52.435811748767335,"lon":31.110669255256653}},{"stopId":"6092812","name":"Романовичи","bearing":62,"stopType":1,"address":"Садовая улица, Улуковский сельский Совет","point":{"lat":52.435457731609425,"lon":31.13842248916626}},{"stopId":"6178828","name":"Романовичи \"Лесхоз\"","bearing":203,"stopType":1,"address":"Н4901, Улуковский сельский Совет","point":{"lat":52.43351640410856,"lon":31.134902954101562}},{"stopId":"6179852","name":"Романовичи \"Лесхоз\"","bearing":23,"stopType":1,"address":"Октябрьская улица, Улуковский сельский Совет","point":{"lat":52.43321705985381,"lon":31.13493001461029}},{"stopId":"4973580","name":"Улица школьная (обр)","bearing":268,"stopType":1,"address":"Школьная улица, Улуковский сельский Совет","point":{"lat":52.426397955734146,"lon":31.111639738082886}},{"stopId":"4974604","name":"Романовичи-школа (пр)","bearing":91,"stopType":1,"address":"Школьная улица, Улуковский сельский Совет","point":{"lat":52.42631483211787,"lon":31.119962573051453}},{"stopId":"4975628","name":"Романовичи-школа (обр)","bearing":271,"stopType":1,"address":"Школьная улица, Улуковский сельский Совет","point":{"lat":52.42650939953075,"lon":31.119652271270752}},{"stopId":"4976652","name":"Романовичи-сквер (пр)","bearing":87,"stopType":1,"address":"Школьная улица, Улуковский сельский Совет","point":{"lat":52.4263578325787,"lon":31.128095149993896}},{"stopId":"4977676","name":"Романовичи","bearing":225,"stopType":1,"address":"Н4109, Улуковский сельский Совет","point":{"lat":52.43538658797629,"lon":31.137327313423157}},{"stopId":"4978700","name":"Залядье","bearing":266,"stopType":1,"address":", Улуковский сельский Совет","point":{"lat":52.429484228277325,"lon":31.166054606437683}},{"stopId":"4979724","name":"Романовичи-сквер (обр)","bearing":271,"stopType":1,"address":"Школьная улица, Улуковский сельский Совет","point":{"lat":52.426513467078934,"lon":31.12766742706299}},{"stopId":"4980748","name":"Улица школьная (пр)","bearing":92,"stopType":1,"address":"Школьная улица, Улуковский сельский Совет","point":{"lat":52.426224647176625,"lon":31.112250804901123}},{"stopId":"3094540","name":"Васильевка","bearing":165,"stopType":1,"address":"Р124, Добруш","point":{"lat":52.45630437186021,"lon":31.28555715084076}},{"stopId":"3095564","name":"Васильевка","bearing":344,"stopType":1,"address":"Р124, Добруш","point":{"lat":52.45793869986124,"lon":31.285030603408813}},{"stopId":"3096588","name":"Марьино","bearing":302,"stopType":1,"address":"Советская улица, Рассветовский сельский Совет","point":{"lat":52.47493268338768,"lon":31.276442408561707}},{"stopId":"3097612","name":"Марьино","bearing":124,"stopType":1,"address":"Советская улица, Рассветовский сельский Совет","point":{"lat":52.47485333418171,"lon":31.27626085281372}},{"stopId":"4704268","name":"Тарасовка","bearing":273,"stopType":1,"address":", Радужский сельский Совет","point":{"lat":52.53084185667006,"lon":31.24141263961792}},{"stopId":"4705292","name":"Тарасовка","bearing":93,"stopType":1,"address":", Радужский сельский Совет","point":{"lat":52.53069645189132,"lon":31.24138629436493}},{"stopId":"3734540","name":"Рудня-Споницкая","bearing":130,"stopType":1,"address":"Р124, Радужский сельский Совет","point":{"lat":52.51945495605469,"lon":31.189016342163086}},{"stopId":"3735564","name":"Рудня Споницкая","bearing":321,"stopType":1,"address":"Р124, Радужский сельский Совет","point":{"lat":52.517029847485766,"lon":31.193973302841187}},{"stopId":"3736588","name":"Тумарин","bearing":310,"stopType":1,"address":"Р124, Радужский сельский Совет","point":{"lat":52.504300981110845,"lon":31.22252857685089}},{"stopId":"3737612","name":"Тумарин","bearing":130,"stopType":1,"address":"Р124, Радужский сельский Совет","point":{"lat":52.50413410282191,"lon":31.222115516662598}},{"stopId":"3738636","name":"Чистые Лужи","bearing":83,"stopType":1,"address":", Радужский сельский Совет","point":{"lat":52.4774169921875,"lon":31.214326858520508}},{"stopId":"6223884","name":"Чистые Лужи","bearing":0,"stopType":1,"address":", Радужский сельский Совет","point":{"lat":52.47758865356445,"lon":31.2143611907959}},{"stopId":"5019660","name":"Дачи (пр)","bearing":174,"stopType":1,"address":"Р124, Ветка","point":{"lat":52.53080404643703,"lon":31.181089758872986}},{"stopId":"5021708","name":"Дачи Сельхозмонтаж","bearing":221,"stopType":1,"address":", Радужский сельский Совет","point":{"lat":52.51443064981712,"lon":31.18786370754242}},{"stopId":"5025804","name":"СТ ГИДРАВЛИК","bearing":201,"stopType":1,"address":", Радужский сельский Совет","point":{"lat":52.505514438874535,"lon":31.176428079605103}},{"stopId":"5026828","name":"Дачи Спартак","bearing":189,"stopType":1,"address":", Радужский сельский Совет","point":{"lat":52.50164008328031,"lon":31.1744966506958}},{"stopId":"5027852","name":"Дачи Портовик","bearing":93,"stopType":1,"address":", Радужский сельский Совет","point":{"lat":52.49642073319814,"lon":31.174656867980957}},{"stopId":"5028876","name":"Дачи з-да Кирова","bearing":6,"stopType":1,"address":"Н4102, Улуковский сельский Совет","point":{"lat":52.50070058818957,"lon":31.187092065811157}},{"stopId":"5762060","name":"Старое Село приб.","bearing":159,"stopType":1,"address":"Кооперативная улица, Хальчанский сельский Совет","point":{"lat":52.52732761826288,"lon":31.134505198287965}},{"stopId":"5763084","name":"Старое Село отпр.","bearing":295,"stopType":1,"address":"Колхозная улица, Хальчанский сельский Совет","point":{"lat":52.5274917504644,"lon":31.134355306625366}},{"stopId":"5765132","name":"АС Ветка приб.","bearing":119,"stopType":1,"address":"улица Луначарского, Ветка","point":{"lat":52.56723734615802,"lon":31.171680615234376}},{"stopId":"5766156","name":"АС Ветка отпр.","bearing":82,"stopType":1,"address":"улица Луначарского, Ветка","point":{"lat":52.566851588651346,"lon":31.17247200012207}},{"stopId":"4544524","name":"Поликлиника ","bearing":250,"stopType":1,"address":"улица Батракова, Ветка","point":{"lat":52.56665593037299,"lon":31.176803946495056}},{"stopId":"4545548","name":"Поликлиника ","bearing":75,"stopType":1,"address":"улица Батракова, Ветка","point":{"lat":52.566562904279216,"lon":31.177345395088196}},{"stopId":"4546572","name":"РОВД","bearing":243,"stopType":1,"address":"улица Батракова, Ветка","point":{"lat":52.56825817617791,"lon":31.181797742843628}},{"stopId":"4547596","name":"РОВД","bearing":59,"stopType":1,"address":"улица Батракова, Ветка","point":{"lat":52.56839355361744,"lon":31.18251633644104}},{"stopId":"3687436","name":"Красная площадь","bearing":75,"stopType":1,"address":"Советская улица, Ветка","point":{"lat":52.55952464897996,"lon":31.175231099128723}},{"stopId":"11165708","name":"Хальч","bearing":239,"stopType":1,"address":"Р30, Хальчанский сельский Совет","point":{"lat":52.5589476787164,"lon":31.143925189925366}},{"stopId":"11166732","name":"Хальч","bearing":63,"stopType":1,"address":"Р30, Хальчанский сельский Совет","point":{"lat":52.559213396639855,"lon":31.145555019378662}},{"stopId":"11237388","name":"Золотой Рог","bearing":220,"stopType":1,"address":"Ветковская улица, Хальчанский сельский Совет","point":{"lat":52.526746247564596,"lon":31.080562710762024}},{"stopId":"11238412","name":"Золотой Рог","bearing":43,"stopType":1,"address":"Ветковская улица, Хальчанский сельский Совет","point":{"lat":52.52723761352865,"lon":31.08172619342804}},{"stopId":"11239436","name":"пов.Старое Село","bearing":223,"stopType":1,"address":", Хальчанский сельский Совет","point":{"lat":52.537700663468186,"lon":31.09654211997986}},{"stopId":"11240460","name":"пов.Старое Село","bearing":41,"stopType":1,"address":"Р30, Хальчанский сельский Совет","point":{"lat":52.539890863487045,"lon":31.10041570663452}},{"stopId":"11241484","name":"пов.Шерстин","bearing":50,"stopType":1,"address":"Р30, Хальчанский сельский Совет","point":{"lat":52.553615709930966,"lon":31.13115358352661}},{"stopId":"11242508","name":"пов.Шерстин","bearing":325,"stopType":1,"address":"Хальч - Шерстин - Присно - Большевик, Хальчанский сельский Совет","point":{"lat":52.55329641403552,"lon":31.12793517112732}},{"stopId":"11243532","name":"пов.Шерстин","bearing":233,"stopType":1,"address":"Р30, Хальчанский сельский Совет","point":{"lat":52.55149771282113,"lon":31.125515580177307}},{"stopId":"11244556","name":"АС Ветка","bearing":0,"stopType":1,"address":"улица Луначарского, Ветка","point":{"lat":52.56681442260742,"lon":31.17241668701172}},{"stopId":"11247628","name":"Старое Село","bearing":0,"stopType":1,"address":"Кооперативная улица, Хальчанский сельский Совет","point":{"lat":52.52730178833008,"lon":31.13465690612793}},{"stopId":"11248652","name":"пов.Старое Село","bearing":118,"stopType":1,"address":"Золотой Рог - Ст.Село, Хальчанский сельский Совет","point":{"lat":52.538159478291874,"lon":31.099288940429688}},{"stopId":"5020684","name":"Дачи (обр)","bearing":349,"stopType":1,"address":"Р124, Ветка","point":{"lat":52.531577006954905,"lon":31.181175231933594}},{"stopId":"5022732","name":"Дачи Стройтреста","bearing":126,"stopType":1,"address":", Радужский сельский Совет","point":{"lat":52.509984844472214,"lon":31.17001175880432}},{"stopId":"3361804","name":"Коммуна отп","bearing":0,"stopType":1,"address":"улица 30 лет Советской Армии, Добруш","point":{"lat":52.40955169992061,"lon":31.291365265846252}},{"stopId":"3362828","name":"Коммуна приб","bearing":259,"stopType":1,"address":"улица 30 лет Советской Армии, Добруш","point":{"lat":52.40956233368948,"lon":31.291064023971558}},{"stopId":"3363852","name":"ул. Революционная","bearing":93,"stopType":1,"address":"улица 30 лет Советской Армии, Добруш","point":{"lat":52.40972268320859,"lon":31.29745864868164}},{"stopId":"4172812","name":"Большевик","bearing":206,"stopType":1,"address":"Советская улица, Большевистский сельский Совет","point":{"lat":52.5604923066671,"lon":30.8809996843338}},{"stopId":"4173836","name":"Большевик","bearing":23,"stopType":1,"address":"Советская улица, Большевистский сельский Совет","point":{"lat":52.56043648148981,"lon":30.881133317947388}},{"stopId":"4602892","name":"пов. Большевик","bearing":255,"stopType":1,"address":"Н4097, Большевистский сельский Совет","point":{"lat":52.56258101282653,"lon":30.891261027145386}},{"stopId":"6078476","name":"Большевик (прям.)","bearing":287,"stopType":1,"address":"Советская улица, Большевистский сельский Совет","point":{"lat":52.56086834617281,"lon":30.879797265815736}},{"stopId":"6083596","name":"Большевик (обр.)","bearing":118,"stopType":1,"address":"Красноармейская улица, Большевистский сельский Совет","point":{"lat":52.56102478188785,"lon":30.87889313697815}},{"stopId":"429068","name":"пов.Большевик","bearing":154,"stopType":1,"address":", Большевистский сельский Совет","point":{"lat":52.56109046833334,"lon":30.893261955070496}},{"stopId":"430092","name":"пов.Большевик","bearing":333,"stopType":1,"address":"Подъезд к г.Гомелю от а/д Гр.РФ(Езерище)-Витебск-Гомель-гр.Укр.(Новая Гута), Большевистский сельский Совет","point":{"lat":52.5640627315019,"lon":30.891014218330383}},{"stopId":"4983820","name":"д. Рассвет (обр)","bearing":213,"stopType":1,"address":"Хальч - Шерстин - Присно - Большевик, Большевистский сельский Совет","point":{"lat":52.56574123451954,"lon":30.90826666355133}},{"stopId":"4984844","name":"д. Рассвет (пр)","bearing":64,"stopType":1,"address":"Хальч - Шерстин - Присно - Большевик, Большевистский сельский Совет","point":{"lat":52.56461435572052,"lon":30.90670597553253}},{"stopId":"1021964","name":"ул. Нагорная","bearing":17,"stopType":1,"address":"улица Крупской, Гомель","point":{"lat":52.47955973533401,"lon":31.013018369674683}},{"stopId":"1100812","name":"Школа №54","bearing":126,"stopType":1,"address":"Олимпийская улица, Гомель","point":{"lat":52.47995164553053,"lon":31.023404359817505}},{"stopId":"3382284","name":"ул. Яговкина","bearing":209,"stopType":1,"address":"улица Крупской, Гомель","point":{"lat":52.482189769850166,"lon":31.01428322582245}},{"stopId":"10874892","name":"ул.Яговкина","bearing":22,"stopType":1,"address":"улица Крупской, Гомель","point":{"lat":52.48252541682475,"lon":31.014787435531616}},{"stopId":"10875916","name":"Поколюбичи","bearing":23,"stopType":1,"address":"улица Ленина, Поколюбичский сельский Совет","point":{"lat":52.49204719625558,"lon":31.02187478542328}},{"stopId":"10876940","name":"Поколюбичи","bearing":210,"stopType":1,"address":"Р30, Поколюбичский сельский Совет","point":{"lat":52.49007048164304,"lon":31.02043116092682}},{"stopId":"10878988","name":"Поколюбичи 1","bearing":20,"stopType":1,"address":"улица Ленина, Поколюбичский сельский Совет","point":{"lat":52.495845647172146,"lon":31.024091601371765}},{"stopId":"10956812","name":"ул. Нагорная","bearing":306,"stopType":1,"address":"улица Свиридова, Гомель","point":{"lat":52.47959416756934,"lon":31.011884450912476}},{"stopId":"447500","name":"Остров","bearing":0,"stopType":1,"address":", Поколюбичский сельский Совет","point":{"lat":52.559173583984375,"lon":31.005155563354492}},{"stopId":"5009420","name":"д. Мостище (обр)","bearing":241,"stopType":1,"address":"Костюковка - Н.Жизнь, Поколюбичский сельский Совет","point":{"lat":52.54965376768677,"lon":31.027822494506836}},{"stopId":"5010444","name":"д. Мостище (пр)","bearing":98,"stopType":1,"address":"Костюковка - Н.Жизнь, Поколюбичский сельский Совет","point":{"lat":52.549544357296185,"lon":31.014400243759155}},{"stopId":"5011468","name":"пос. Каничев (пр)","bearing":65,"stopType":1,"address":"Костюковка - Н.Жизнь, Поколюбичский сельский Совет","point":{"lat":52.54995258924627,"lon":31.029914379119873}},{"stopId":"11298828","name":"Поколюбичи 1","bearing":197,"stopType":1,"address":"улица Ленина, Поколюбичский сельский Совет","point":{"lat":52.49830296895493,"lon":31.025217413902283}},{"stopId":"10289164","name":"ул. Макаёнка","bearing":306,"stopType":1,"address":"улица Свиридова, Гомель","point":{"lat":52.47189171175283,"lon":31.032240509986877}},{"stopId":"10290188","name":"ул. Макаёнка","bearing":130,"stopType":1,"address":"улица Свиридова, Гомель","point":{"lat":52.47099461670227,"lon":31.033668279647827}},{"stopId":"3090444","name":"Поколюбичи (кольцевая)","bearing":49,"stopType":1,"address":"улица Ленина, Поколюбичский сельский Совет","point":{"lat":52.51175008842932,"lon":31.04761493206024}},{"stopId":"3091468","name":"ул. Крупской","bearing":46,"stopType":1,"address":"улица Ленина, Поколюбичский сельский Совет","point":{"lat":52.503743584772735,"lon":31.033335328102112}},{"stopId":"1027084","name":"мкрн 20а","bearing":168,"stopType":1,"address":"улица Свиридова, Гомель","point":{"lat":52.47143881889673,"lon":31.040775060653687}},{"stopId":"1028108","name":"мкрн 20а","bearing":333,"stopType":1,"address":"улица Свиридова, Гомель","point":{"lat":52.47180752492449,"lon":31.040871739387512}},{"stopId":"1029132","name":"ул. Макаёнка","bearing":307,"stopType":1,"address":"Олимпийская улица, Гомель","point":{"lat":52.47442578133651,"lon":31.036118268966675}},{"stopId":"1030156","name":"ул. Макаёнка","bearing":127,"stopType":1,"address":"Олимпийская улица, Гомель","point":{"lat":52.47464569978338,"lon":31.035314083099365}},{"stopId":"10880012","name":"Поколюбичи магазин","bearing":44,"stopType":1,"address":"улица Ленина, Поколюбичский сельский Совет","point":{"lat":52.50656345246008,"lon":31.03822159767151}},{"stopId":"10881036","name":"Поколюбичи магазин","bearing":233,"stopType":1,"address":"улица Ленина, Поколюбичский сельский Совет","point":{"lat":52.50613522122127,"lon":31.037147998809814}},{"stopId":"3732492","name":"Станки","bearing":76,"stopType":1,"address":"Станки, Хальчанский сельский Совет","point":{"lat":52.54481939872583,"lon":31.05335557460785}},{"stopId":"3733516","name":"Каничев","bearing":168,"stopType":1,"address":"Каничев, Хальчанский сельский Совет","point":{"lat":52.54181671142578,"lon":31.03997039794922}},{"stopId":"11233292","name":"Поколюбичи 2","bearing":225,"stopType":1,"address":"улица Ленина, Поколюбичский сельский Совет","point":{"lat":52.5095832554993,"lon":31.043124556541443}},{"stopId":"11234316","name":"Поколюбичи 2","bearing":46,"stopType":1,"address":"улица Ленина, Поколюбичский сельский Совет","point":{"lat":52.50971133464841,"lon":31.043842792510986}},{"stopId":"5012492","name":"пос. Каничев (обр)","bearing":246,"stopType":1,"address":"Костюковка - Н.Жизнь, Поколюбичский сельский Совет","point":{"lat":52.55410237642019,"lon":31.044999599456787}},{"stopId":"5013516","name":"пос. Станки (пр)","bearing":63,"stopType":1,"address":"Костюковка - Н.Жизнь, Поколюбичский сельский Совет","point":{"lat":52.55418707411008,"lon":31.04640483856201}},{"stopId":"5014540","name":"пос. Станки (обр)","bearing":156,"stopType":1,"address":"Хальч - Станки - Кунторовка, Хальчанский сельский Совет","point":{"lat":52.55943721184023,"lon":31.045342683792114}},{"stopId":"5015564","name":"Нов. Жизнь (пр)","bearing":42,"stopType":1,"address":"Хальч - Станки - Кунторовка, Хальчанский сельский Совет","point":{"lat":52.562611550106794,"lon":31.052616596221924}},{"stopId":"972812","name":"Магазин","bearing":85,"stopType":1,"address":"Добрушская улица, Гомель","point":{"lat":52.40196742110653,"lon":31.06017582206726}},{"stopId":"982028","name":"Магазин \"Ипуть\"","bearing":32,"stopType":1,"address":"улица Свердлова, Гомель","point":{"lat":52.4007686408431,"lon":31.036036729812622}},{"stopId":"983052","name":"Магазин \"Ипуть\"","bearing":213,"stopType":1,"address":"улица Свердлова, Гомель","point":{"lat":52.40044966154046,"lon":31.035393476486206}},{"stopId":"984076","name":"ул.Свердлова","bearing":236,"stopType":1,"address":"улица Свердлова, Гомель","point":{"lat":52.40400916653512,"lon":31.04305338859558}},{"stopId":"985100","name":"ул.Свердлова","bearing":109,"stopType":1,"address":"Добрушская улица, Гомель","point":{"lat":52.405063659747654,"lon":31.04560685157776}},{"stopId":"4653080","name":"Новобелицкая","bearing":0,"stopType":3,"address":"Международная улица, Гомель","point":{"lat":52.3999011,"lon":31.0326415}},{"stopId":"1124364","name":"Гребной канал","bearing":225,"stopType":1,"address":"Луговая улица, Гомель","point":{"lat":52.410695698127256,"lon":31.030327796936035}},{"stopId":"1125388","name":"Гребной канал","bearing":44,"stopType":1,"address":"Луговая улица, Гомель","point":{"lat":52.411356235309654,"lon":31.031561851501465}},{"stopId":"1126412","name":"Магазин","bearing":231,"stopType":1,"address":"Луговая улица, Гомель","point":{"lat":52.41332223266253,"lon":31.03402316570282}},{"stopId":"1127436","name":"Магазин","bearing":38,"stopType":1,"address":"Луговая улица, Гомель","point":{"lat":52.413658950533716,"lon":31.034806728363037}},{"stopId":"10975244","name":"ул.Добрушская","bearing":145,"stopType":1,"address":", Гомель","point":{"lat":52.40022927510544,"lon":31.06610119342804}},{"stopId":"10976268","name":"ул.Добрушская","bearing":329,"stopType":1,"address":"Центральная улица, Улуковский сельский Совет","point":{"lat":52.40060624333215,"lon":31.066117882728577}},{"stopId":"10977292","name":"Магазин","bearing":263,"stopType":1,"address":"Добрушская улица, Гомель","point":{"lat":52.402092900646124,"lon":31.05900013446808}},{"stopId":"10978316","name":"Туббольница","bearing":287,"stopType":1,"address":"Добрушская улица, Гомель","point":{"lat":52.404578312370816,"lon":31.049967050552368}},{"stopId":"10979340","name":"Туббольница","bearing":104,"stopType":1,"address":"Добрушская улица, Гомель","point":{"lat":52.40419074854101,"lon":31.050766825675964}},{"stopId":"10980364","name":"ул.Бабушкина","bearing":310,"stopType":1,"address":"улица Бабушкина, Гомель","point":{"lat":52.40612207974093,"lon":31.043256044387817}},{"stopId":"10981388","name":"ул.Бабушкина","bearing":120,"stopType":1,"address":"улица Бабушкина, Гомель","point":{"lat":52.40570467928413,"lon":31.043630838394165}},{"stopId":"10982412","name":"ул.Пугачева","bearing":251,"stopType":1,"address":"1-я улица Луначарского, Гомель","point":{"lat":52.40804388867129,"lon":31.03659737110138}},{"stopId":"10983436","name":"ул.Пугачева","bearing":53,"stopType":1,"address":"1-я улица Луначарского, Гомель","point":{"lat":52.40669134267834,"lon":31.034141302108765}},{"stopId":"10985484","name":"ул.Луначарского","bearing":232,"stopType":1,"address":"1-я улица Луначарского, Гомель","point":{"lat":52.40472913305587,"lon":31.029372692108154}},{"stopId":"10264588","name":"площадь Ленина","bearing":340,"stopType":1,"address":"площадь Ленина, Гомель","point":{"lat":52.42518328563605,"lon":31.014973759651184}},{"stopId":"10335244","name":"ул. Международная","bearing":166,"stopType":1,"address":"улица Ильича, Гомель","point":{"lat":52.39493704974138,"lon":31.028326272964478}},{"stopId":"10352652","name":"ул. Международная","bearing":339,"stopType":1,"address":"улица Ильича, Гомель","point":{"lat":52.39427243986876,"lon":31.029009699821472}},{"stopId":"10353676","name":"Мясокомбинат","bearing":140,"stopType":1,"address":"улица Ильича, Гомель","point":{"lat":52.40033509951954,"lon":31.022224187850952}},{"stopId":"10354700","name":"ул. Луговая","bearing":314,"stopType":1,"address":"улица Ильича, Гомель","point":{"lat":52.409340671233714,"lon":31.017568588256836}},{"stopId":"10355724","name":"ул. Луговая","bearing":126,"stopType":1,"address":"улица Фрунзе, Гомель","point":{"lat":52.40999513804002,"lon":31.015562295913696}},{"stopId":"10356748","name":"Жирокомбинат","bearing":326,"stopType":1,"address":"улица Ильича, Гомель","point":{"lat":52.399829677450015,"lon":31.02317976951599}},{"stopId":"10440716","name":"площадь Ленина","bearing":214,"stopType":1,"address":"площадь Ленина, Гомель","point":{"lat":52.42483901977539,"lon":31.01447868347168}},{"stopId":"10467340","name":"площадь Ленина","bearing":246,"stopType":1,"address":"Трудовая улица, Гомель","point":{"lat":52.42568916410809,"lon":31.013736248016357}},{"stopId":"10468364","name":"площадь Ленина","bearing":68,"stopType":1,"address":"Трудовая улица, Гомель","point":{"lat":52.42550874507563,"lon":31.01363205909729}},{"stopId":"981004","name":"ул. Луначарского","bearing":126,"stopType":1,"address":"улица Фрунзе, Гомель","point":{"lat":52.40387249485456,"lon":31.026905701446534}},{"stopId":"986124","name":"ул. Луначарского","bearing":308,"stopType":1,"address":"Дорожная улица, Гомель","point":{"lat":52.40365725597486,"lon":31.027926206588745}},{"stopId":"1117196","name":"ул. Полевая-1","bearing":34,"stopType":1,"address":"Полевая улица, Гомель","point":{"lat":52.41002742063484,"lon":31.02280843257904}},{"stopId":"1118220","name":"ул. Полевая-2","bearing":209,"stopType":1,"address":"Полевая улица, Гомель","point":{"lat":52.41017326296115,"lon":31.023059606552124}},{"stopId":"1119244","name":"ул. Полевая-1","bearing":204,"stopType":1,"address":"Полевая улица, Гомель","point":{"lat":52.412274632831554,"lon":31.024057030677795}},{"stopId":"1120268","name":"ул. Полевая-2","bearing":18,"stopType":1,"address":"Полевая улица, Гомель","point":{"lat":52.4123989774229,"lon":31.024357438087463}},{"stopId":"1121292","name":"Переулок 3-й Полевой","bearing":222,"stopType":1,"address":"Полевая улица, Гомель","point":{"lat":52.4149733165355,"lon":31.025891542434692}},{"stopId":"1122316","name":"ул. Переулок 2й полевой","bearing":218,"stopType":1,"address":"Полевая улица, Гомель","point":{"lat":52.41818813915379,"lon":31.029372096061707}},{"stopId":"10984460","name":"ул.Луначарского","bearing":55,"stopType":1,"address":"1-я улица Луначарского, Гомель","point":{"lat":52.404042805569055,"lon":31.02850329875946}},{"stopId":"10986508","name":"ул.Луговая","bearing":326,"stopType":1,"address":"улица Фрунзе, Гомель","point":{"lat":52.40878914168381,"lon":31.01863920688629}},{"stopId":"5998604","name":"По требованию","bearing":38,"stopType":1,"address":"Луговая улица, Гомель","point":{"lat":52.40778396034543,"lon":31.02622978477478}},{"stopId":"5999628","name":"По требованию","bearing":219,"stopType":1,"address":"Луговая улица, Гомель","point":{"lat":52.407515193169,"lon":31.025564596939088}},{"stopId":"6000652","name":"По требованию","bearing":35,"stopType":1,"address":"Полевая улица, Гомель","point":{"lat":52.415155114590405,"lon":31.026353359222412}},{"stopId":"10300428","name":"Дружба","bearing":8,"stopType":1,"address":"улица Мазурова, Гомель","point":{"lat":52.4551283198871,"lon":31.02494966983795}},{"stopId":"10301452","name":"Дружба","bearing":195,"stopType":1,"address":"улица Мазурова, Гомель","point":{"lat":52.45437673975667,"lon":31.024266481399536}},{"stopId":"10302476","name":"ул.  Головацкого","bearing":9,"stopType":1,"address":"улица Мазурова, Гомель","point":{"lat":52.45184164045908,"lon":31.024065852165222}},{"stopId":"10303500","name":"ул. Головацкого","bearing":190,"stopType":1,"address":"улица Мазурова, Гомель","point":{"lat":52.450921749189334,"lon":31.023274660110474}},{"stopId":"10304524","name":"Центральная поликлиника","bearing":9,"stopType":1,"address":"улица Мазурова, Гомель","point":{"lat":52.448341369628906,"lon":31.023094177246094}},{"stopId":"10305548","name":"Центральная поликлиника","bearing":196,"stopType":1,"address":"улица Мазурова, Гомель","point":{"lat":52.447471618652344,"lon":31.022354125976562}},{"stopId":"10306572","name":"Мельников луг","bearing":266,"stopType":1,"address":"улица Хатаевича, Гомель","point":{"lat":52.444421495562864,"lon":31.019704818725586}},{"stopId":"10307596","name":"Мельников луг","bearing":78,"stopType":1,"address":"улица Хатаевича, Гомель","point":{"lat":52.44405310237351,"lon":31.018391132354736}},{"stopId":"4007948","name":"Школа №59","bearing":81,"stopType":1,"address":"улица Головацкого, Гомель","point":{"lat":52.4499898762177,"lon":31.014916227149964}},{"stopId":"4008972","name":"Школа №59","bearing":303,"stopType":1,"address":"улица Головацкого, Гомель","point":{"lat":52.45039635533898,"lon":31.0156352519989}},{"stopId":"1013772","name":"Мельников луг ","bearing":0,"stopType":1,"address":"улица Хатаевича, Гомель","point":{"lat":52.44478225708008,"lon":31.02027702331543}},{"stopId":"1139724","name":"Бульвар Газеты \"Гомельская правда\"","bearing":197,"stopType":1,"address":"Восточный обход, Гомель","point":{"lat":52.44736015516665,"lon":31.02934956550598}},{"stopId":"126988","name":"ул. Головацкого","bearing":263,"stopType":1,"address":"улица Головацкого, Гомель","point":{"lat":52.4513193193218,"lon":31.022571251678468}},{"stopId":"3115020","name":"ул. Ф.Скорины","bearing":223,"stopType":1,"address":"Н4901, Гомель","point":{"lat":52.41518955210137,"lon":31.048119068145752}},{"stopId":"3116044","name":"ул. Ф.Скорины","bearing":38,"stopType":1,"address":"Н4901, Гомель","point":{"lat":52.41576044443769,"lon":31.049320936203003}},{"stopId":"1123340","name":"Ул. Полевая","bearing":0,"stopType":1,"address":"Полевая улица, Гомель","point":{"lat":52.42055130004883,"lon":31.031055450439453}},{"stopId":"1128460","name":"2-й Луговой переулок","bearing":216,"stopType":1,"address":"Луговая улица, Гомель","point":{"lat":52.41563716142602,"lon":31.037028312683105}},{"stopId":"1129484","name":"2-й Луговой переулок","bearing":31,"stopType":1,"address":"Луговая улица, Гомель","point":{"lat":52.416415090723916,"lon":31.038100957870483}},{"stopId":"1130508","name":"Якубовка","bearing":0,"stopType":1,"address":"2-й Луговой переулок, Гомель","point":{"lat":52.41735076904297,"lon":31.043048858642578}},{"stopId":"1141772","name":"Микрорайон №18","bearing":201,"stopType":1,"address":"Восточный обход, Гомель","point":{"lat":52.45035907755378,"lon":31.031044244766235}},{"stopId":"1142796","name":"Храм святителя Николая Чудотворца","bearing":24,"stopType":1,"address":"Восточный обход, Гомель","point":{"lat":52.451660543856406,"lon":31.032341957092285}},{"stopId":"1143820","name":"Школа №72","bearing":197,"stopType":1,"address":"Восточный обход, Гомель","point":{"lat":52.45460282788857,"lon":31.033275604248047}},{"stopId":"1144844","name":"Микрорайон №19","bearing":14,"stopType":1,"address":"Восточный обход, Гомель","point":{"lat":52.455053477001265,"lon":31.03390908241272}},{"stopId":"10287116","name":"мкр-н \"Кленковский\"","bearing":0,"stopType":1,"address":"Чечерская улица, Гомель","point":{"lat":52.47056579589844,"lon":31.04281997680664}},{"stopId":"10288140","name":"Микрорайон №21","bearing":36,"stopType":1,"address":"Чечерская улица, Гомель","point":{"lat":52.46902084350586,"lon":31.04220199584961}},{"stopId":"10291212","name":"ул. Чечерская","bearing":130,"stopType":1,"address":"улица Свиридова, Гомель","point":{"lat":52.46830245207974,"lon":31.039575338363647}},{"stopId":"10310668","name":"20а микрорайон","bearing":304,"stopType":1,"address":"улица Свиридова, Гомель","point":{"lat":52.47024165191116,"lon":31.03582763671875}},{"stopId":"10317836","name":"ул. Чечерская","bearing":129,"stopType":1,"address":"улица Каменщикова, Гомель","point":{"lat":52.463059047064,"lon":31.03541851043701}},{"stopId":"10466316","name":"Микрорайон №21","bearing":214,"stopType":1,"address":"Чечерская улица, Гомель","point":{"lat":52.4687614440918,"lon":31.04170036315918}},{"stopId":"1026060","name":"мкр-н \"Кленковский\"","bearing":0,"stopType":1,"address":"улица Свиридова, Гомель","point":{"lat":52.47067642211914,"lon":31.041183471679688}},{"stopId":"1138700","name":"Ст Волотова","bearing":0,"stopType":1,"address":"Клёнковская улица, Гомель","point":{"lat":52.46137237548828,"lon":31.039474487304688}},{"stopId":"1145868","name":"ул. Бородина","bearing":209,"stopType":1,"address":"Восточный обход, Гомель","point":{"lat":52.45939254760742,"lon":31.035873413085938}},{"stopId":"1146892","name":"ул. Бородина","bearing":26,"stopType":1,"address":"Восточный обход, Гомель","point":{"lat":52.459903717041016,"lon":31.036649703979492}},{"stopId":"10931212","name":"Старая Волотова","bearing":153,"stopType":1,"address":"Клёнковская улица, Гомель","point":{"lat":52.46143379878137,"lon":31.03882658481598}},{"stopId":"10932236","name":"Старая Волотова","bearing":124,"stopType":1,"address":"Клёнковская улица, Гомель","point":{"lat":52.46120932340474,"lon":31.039174795150757}},{"stopId":"4587532","name":"Детский сад №11","bearing":13,"stopType":1,"address":"Чечерская улица, Гомель","point":{"lat":52.46408828581156,"lon":31.039196968078613}},{"stopId":"4588556","name":"Детский сад №11","bearing":198,"stopType":1,"address":"Чечерская улица, Гомель","point":{"lat":52.466100595377945,"lon":31.0395610332489}},{"stopId":"506892","name":"мкр-н \"Кленковский\"","bearing":36,"stopType":1,"address":"Чечерская улица, Гомель","point":{"lat":52.46991729736328,"lon":31.043136596679688}},{"stopId":"507916","name":"мкр-н \"Кленковский\"","bearing":121,"stopType":1,"address":"Чечерская улица, Гомель","point":{"lat":52.47026062011719,"lon":31.04279899597168}},{"stopId":"10292236","name":"ул. Свиридова","bearing":294,"stopType":1,"address":"улица Свиридова, Гомель","point":{"lat":52.47352981567383,"lon":31.028783798217773}},{"stopId":"10293260","name":"ул. Свиридова","bearing":133,"stopType":1,"address":"улица Свиридова, Гомель","point":{"lat":52.47280282017068,"lon":31.02982234954834}},{"stopId":"10294284","name":"Универсам \"Брянский\"","bearing":198,"stopType":1,"address":"улица Огоренко, Гомель","point":{"lat":52.47532097137874,"lon":31.022716999053955}},{"stopId":"10295308","name":"Универсам \"Брянский\"","bearing":122,"stopType":1,"address":"улица Свиридова, Гомель","point":{"lat":52.475262766168214,"lon":31.023196697235107}},{"stopId":"10298380","name":"Ледовый дворец","bearing":350,"stopType":1,"address":"улица Мазурова, Гомель","point":{"lat":52.4601375204609,"lon":31.0246319770813}},{"stopId":"10299404","name":"Ледовый дворец","bearing":174,"stopType":1,"address":", Гомель","point":{"lat":52.45912496575928,"lon":31.02453112602234}},{"stopId":"5539864","name":"Волотова","bearing":0,"stopType":3,"address":"Олимпийская улица, Гомель","point":{"lat":52.4781656,"lon":31.0319456}},{"stopId":"1031180","name":"Олимпийская","bearing":131,"stopType":1,"address":"Олимпийская улица, Гомель","point":{"lat":52.4774438940878,"lon":31.02897846698761}},{"stopId":"10873868","name":"Технический центр \"НТС\"","bearing":197,"stopType":1,"address":"улица Крупской, Гомель","point":{"lat":52.47744458090848,"lon":31.01165461540222}},{"stopId":"10955788","name":"Универсам \"Брянский\"","bearing":307,"stopType":1,"address":"улица Свиридова, Гомель","point":{"lat":52.47589248162474,"lon":31.022045612288647}},{"stopId":"10957836","name":"ул. Нагорная","bearing":119,"stopType":1,"address":"улица Свиридова, Гомель","point":{"lat":52.478815928800344,"lon":31.01325213909149}},{"stopId":"3729420","name":"Победа","bearing":61,"stopType":1,"address":"Хальч - Станки - Кунторовка, Хальчанский сельский Совет","point":{"lat":52.54671153690495,"lon":31.066788911819458}},{"stopId":"3730444","name":"Победа","bearing":255,"stopType":1,"address":"Победа, Хальчанский сельский Совет","point":{"lat":52.54607042538201,"lon":31.064203023910522}},{"stopId":"3731468","name":"Станки","bearing":248,"stopType":1,"address":"Станки, Хальчанский сельский Совет","point":{"lat":52.545065781528606,"lon":31.05363953113556}},{"stopId":"11235340","name":"Калинина","bearing":236,"stopType":1,"address":"Калинино, Поколюбичский сельский Совет","point":{"lat":52.519294157548295,"lon":31.064613103866577}},{"stopId":"11236364","name":"Калинино","bearing":56,"stopType":1,"address":"Калинино, Поколюбичский сельский Совет","point":{"lat":52.51932179910658,"lon":31.065536737442017}},{"stopId":"5016588","name":"Нов. Жизнь (обр)","bearing":164,"stopType":1,"address":"Хальч - Станки - Кунторовка, Хальчанский сельский Совет","point":{"lat":52.5635188814882,"lon":31.052122831344604}},{"stopId":"10296332","name":"ул. Огоренко","bearing":175,"stopType":1,"address":"улица Мазурова, Гомель","point":{"lat":52.467988326845344,"lon":31.020887970924377}},{"stopId":"10297356","name":"ул. Огоренко","bearing":1,"stopType":1,"address":"улица Огоренко, Гомель","point":{"lat":52.4691645985532,"lon":31.021252274513245}},{"stopId":"10314764","name":"ул. Огоренко","bearing":114,"stopType":1,"address":"улица Каменщикова, Гомель","point":{"lat":52.4681730347729,"lon":31.022218704223633}},{"stopId":"10316812","name":"Храм Преображения Господня","bearing":127,"stopType":1,"address":"улица Каменщикова, Гомель","point":{"lat":52.46587918290231,"lon":31.029385566711426}},{"stopId":"10318860","name":"Волотова","bearing":0,"stopType":1,"address":"улица Каменщикова, Гомель","point":{"lat":52.46550750732422,"lon":31.030786514282227}},{"stopId":"10319884","name":"ул. П.Бровки","bearing":302,"stopType":1,"address":"улица Каменщикова, Гомель","point":{"lat":52.467288412938174,"lon":31.025827646255493}},{"stopId":"10320908","name":"ул. Огоренко","bearing":290,"stopType":1,"address":"улица Каменщикова, Гомель","point":{"lat":52.46909587196021,"lon":31.020046710968018}},{"stopId":"1022988","name":"ул. Петруся Бровки","bearing":0,"stopType":1,"address":"улица Петруся Бровки, Гомель","point":{"lat":52.46818259108149,"lon":31.028860211372375}},{"stopId":"1024012","name":"Школа №49","bearing":181,"stopType":1,"address":"улица Петруся Бровки, Гомель","point":{"lat":52.470688095485556,"lon":31.028613328933716}},{"stopId":"1025036","name":"ул. Чечерская","bearing":306,"stopType":1,"address":"улица Каменщикова, Гомель","point":{"lat":52.46355691071192,"lon":31.034754037857056}},{"stopId":"515084","name":"Волотова приб","bearing":20,"stopType":1,"address":"улица Каменщикова, Гомель","point":{"lat":52.46530982955285,"lon":31.031481504440308}},{"stopId":"516108","name":"Волотова отпр","bearing":269,"stopType":1,"address":"улица Каменщикова, Гомель","point":{"lat":52.46582547435628,"lon":31.030311703681946}},{"stopId":"6121484","name":"Бобовичи Улыбка (прям)","bearing":123,"stopType":1,"address":"Крестьянская улица, Бобовичский сельский Совет","point":{"lat":52.34305618091343,"lon":30.91280436515808}},{"stopId":"6122508","name":"Бобовичи Улыбка (обр.)","bearing":310,"stopType":1,"address":"Крестьянская улица, Бобовичский сельский Совет","point":{"lat":52.34417543504543,"lon":30.910637140274048}},{"stopId":"4917260","name":"Бобовичи связь","bearing":128,"stopType":1,"address":"Крестьянская улица, Бобовичский сельский Совет","point":{"lat":52.3470705699282,"lon":30.90485954284668}},{"stopId":"4933644","name":"Бобовичи связь","bearing":313,"stopType":1,"address":"Крестьянская улица, Бобовичский сельский Совет","point":{"lat":52.34763746825683,"lon":30.904033706474305}},{"stopId":"535564","name":"Санаторий \"Ченки\"","bearing":54,"stopType":1,"address":"Октябрьская улица, Чёнковский сельский Совет","point":{"lat":52.348769429847,"lon":30.974225521087646}},{"stopId":"537612","name":"ОДО \"Внешгомельстрой\"","bearing":201,"stopType":1,"address":"Октябрьская улица, Чёнковский сельский Совет","point":{"lat":52.35134075793835,"lon":30.976128578186035}},{"stopId":"538636","name":"Санаторий \"Ченки\"","bearing":238,"stopType":1,"address":"Октябрьская улица, Чёнковский сельский Совет","point":{"lat":52.348521833498225,"lon":30.973130464553833}},{"stopId":"539660","name":"ГОДЦРМ «Живица»","bearing":227,"stopType":1,"address":"Октябрьская улица, Чёнковский сельский Совет","point":{"lat":52.34591039676092,"lon":30.9676433801651}},{"stopId":"540684","name":"ГОДЦРМ «Живица»","bearing":47,"stopType":1,"address":"Октябрьская улица, Чёнковский сельский Совет","point":{"lat":52.3458147745546,"lon":30.967996835708618}},{"stopId":"541708","name":"Улица Лесная","bearing":222,"stopType":1,"address":"Н4091, Чёнковский сельский Совет","point":{"lat":52.34135343640911,"lon":30.961162567138672}},{"stopId":"542732","name":"Улица Лесная","bearing":43,"stopType":1,"address":"Н4091, Чёнковский сельский Совет","point":{"lat":52.341047523680686,"lon":30.961060166358948}},{"stopId":"11390988","name":"Автоцентр","bearing":178,"stopType":1,"address":"Р150, Гомель","point":{"lat":52.34698356569004,"lon":31.03043293952942}},{"stopId":"5500952","name":"Дачный","bearing":0,"stopType":3,"address":", Зябровский сельский Совет","point":{"lat":52.3645702,"lon":31.0676023}},{"stopId":"3089420","name":"мкр-н \"Южный\"","bearing":0,"stopType":1,"address":"Тереховская улица, Гомель","point":{"lat":52.35049057006836,"lon":31.056795120239258}},{"stopId":"3104780","name":"мкр-н \"Южный\"","bearing":0,"stopType":1,"address":"Тереховская улица, Гомель","point":{"lat":52.35042953491211,"lon":31.054821014404297}},{"stopId":"10647564","name":"Поворот на Химы","bearing":105,"stopType":1,"address":"Дубровный проезд, Гомель","point":{"lat":52.35428522707826,"lon":31.03136897087097}},{"stopId":"10648588","name":"Госпиталь","bearing":89,"stopType":1,"address":"Дубровный проезд, Гомель","point":{"lat":52.35391310396956,"lon":31.039061546325684}},{"stopId":"10649612","name":"Госпиталь","bearing":265,"stopType":1,"address":"Дубровный проезд, Гомель","point":{"lat":52.35412752307743,"lon":31.03749418258667}},{"stopId":"10650636","name":"Химы","bearing":359,"stopType":1,"address":"Дубравная улица, Гомель","point":{"lat":52.354592095254304,"lon":31.047021865844727}},{"stopId":"988172","name":"Предприятие \"Лада-сервис\"","bearing":0,"stopType":1,"address":"улица Ильича, Гомель","point":{"lat":52.35078318158331,"lon":31.030585692214967}},{"stopId":"10651660","name":"Химы","bearing":272,"stopType":1,"address":"Дубравная улица, Гомель","point":{"lat":52.35416306600066,"lon":31.046442985534668}},{"stopId":"989196","name":"Предприятие \"Лада-сервис\"","bearing":93,"stopType":1,"address":", Гомель","point":{"lat":52.34993626944099,"lon":31.03184711933136}},{"stopId":"10652684","name":"ул. Оськина","bearing":109,"stopType":1,"address":"улица Оськина, Гомель","point":{"lat":52.35737653571202,"lon":31.04864192008972}},{"stopId":"990220","name":"РЦРМ","bearing":267,"stopType":1,"address":", Гомель","point":{"lat":52.35048587138703,"lon":31.03578543663025}},{"stopId":"10653708","name":"ул. Оськина","bearing":179,"stopType":1,"address":"Дубравная улица, Гомель","point":{"lat":52.356991201851486,"lon":31.04668927192688}},{"stopId":"991244","name":"РЦРМ","bearing":90,"stopType":1,"address":", Гомель","point":{"lat":52.35033314271628,"lon":31.03682053089142}},{"stopId":"10654732","name":"ул. Подлесная","bearing":159,"stopType":1,"address":"улица Оськина, Гомель","point":{"lat":52.355167388916016,"lon":31.051624298095703}},{"stopId":"992268","name":"ЦРМ","bearing":0,"stopType":1,"address":", Гомель","point":{"lat":52.35053634643555,"lon":31.0408992767334}},{"stopId":"10655756","name":"ул. Подлесная","bearing":338,"stopType":1,"address":"улица Оськина, Гомель","point":{"lat":52.354717988514416,"lon":31.052278995513916}},{"stopId":"993292","name":"Школа №73","bearing":72,"stopType":1,"address":"проезд Ильича, Гомель","point":{"lat":52.35725402832031,"lon":31.040510177612305}},{"stopId":"10656780","name":"ул. Тереховская","bearing":0,"stopType":1,"address":"улица Оськина, Гомель","point":{"lat":52.35083507057839,"lon":31.054457426071167}},{"stopId":"994316","name":"Школа №73","bearing":158,"stopType":1,"address":", Гомель","point":{"lat":52.35626268832212,"lon":31.040263175964355}},{"stopId":"10657804","name":"ул. Тереховская","bearing":178,"stopType":1,"address":"улица Оськина, Гомель","point":{"lat":52.35105162375582,"lon":31.05413556098938}},{"stopId":"513036","name":"Завод \"Кристалл\" ","bearing":2,"stopType":1,"address":"улица Ильича, Гомель","point":{"lat":52.35770034790039,"lon":31.03070640563965}},{"stopId":"10343436","name":"Завод \"Кристалл\"","bearing":342,"stopType":1,"address":", Гомель","point":{"lat":52.3581657409668,"lon":31.03047752380371}},{"stopId":"10646540","name":"Завод \"Кристалл\"","bearing":181,"stopType":1,"address":", Гомель","point":{"lat":52.35870304230326,"lon":31.029974699020386}},{"stopId":"4276236","name":"м-н \"Хутор\"","bearing":101,"stopType":1,"address":"Жемчужная улица, Гомель","point":{"lat":52.357787812768606,"lon":31.011162519454956}},{"stopId":"4277260","name":"м-н \"Хутор\"","bearing":208,"stopType":1,"address":"улица Белого, Гомель","point":{"lat":52.35713151812962,"lon":31.01446771621704}},{"stopId":"4278284","name":"ул. Жемчужная","bearing":26,"stopType":1,"address":"улица Белого, Гомель","point":{"lat":52.35828047105274,"lon":31.015969276428223}},{"stopId":"1113100","name":"ул. Жемчужная","bearing":0,"stopType":1,"address":", Гомель","point":{"lat":52.357723236083984,"lon":31.015268325805664}},{"stopId":"10953740","name":"ул.Жемчужная","bearing":267,"stopType":1,"address":"Жемчужная улица, Гомель","point":{"lat":52.35770985827721,"lon":31.018419265700512}},{"stopId":"10954764","name":"ул.Жемчужная","bearing":88,"stopType":1,"address":"Жемчужная улица, Гомель","point":{"lat":52.35748196562758,"lon":31.01664400100708}},{"stopId":"6065164","name":"Кристалл","bearing":183,"stopType":1,"address":"улица Ильича, Гомель","point":{"lat":52.3574333190918,"lon":31.030059814453125}},{"stopId":"531468","name":"д.Севруки","bearing":276,"stopType":1,"address":"Н4091, Гомель","point":{"lat":52.35876062334943,"lon":30.9899822473526}},{"stopId":"532492","name":"д. Севруки","bearing":97,"stopType":1,"address":"Н4091, Гомель","point":{"lat":52.3585327597971,"lon":30.990770936012268}},{"stopId":"533516","name":"ул. Пионерская","bearing":243,"stopType":1,"address":"Октябрьская улица, Чёнковский сельский Совет","point":{"lat":52.35836412831737,"lon":30.982712745666504}},{"stopId":"534540","name":"ул. Пионерская","bearing":60,"stopType":1,"address":"Н4091, Чёнковский сельский Совет","point":{"lat":52.35856772631156,"lon":30.98378562927246}},{"stopId":"536588","name":"ОДО \"Внешгомельстрой\"","bearing":33,"stopType":1,"address":"Октябрьская улица, Чёнковский сельский Совет","point":{"lat":52.35417123411419,"lon":30.978318095207214}},{"stopId":"10339340","name":"ул. 9 Мая","bearing":179,"stopType":1,"address":"улица Ильича, Гомель","point":{"lat":52.375718356534456,"lon":31.02956235408783}},{"stopId":"10340364","name":"1-я школа","bearing":182,"stopType":1,"address":", Гомель","point":{"lat":52.37077424175593,"lon":31.029661178588867}},{"stopId":"10341388","name":"Завод \"Сантехзаготовок\"","bearing":178,"stopType":1,"address":", Гомель","point":{"lat":52.36796495943106,"lon":31.02975821495056}},{"stopId":"10342412","name":"Завод Химических Изделий","bearing":177,"stopType":1,"address":", Гомель","point":{"lat":52.36208231430552,"lon":31.029916882514954}},{"stopId":"10345484","name":"Завод Химических Изделий","bearing":0,"stopType":1,"address":", Гомель","point":{"lat":52.36290193580185,"lon":31.030187129974365}},{"stopId":"10346508","name":"Завод \"Сантехзаготовок\"","bearing":2,"stopType":1,"address":", Гомель","point":{"lat":52.36801878471435,"lon":31.030012607574463}},{"stopId":"10347532","name":"1-я школа","bearing":358,"stopType":1,"address":", Гомель","point":{"lat":52.37230340048736,"lon":31.029927253723145}},{"stopId":"1080332","name":"ул. Белого","bearing":1,"stopType":1,"address":"улица Белого, Гомель","point":{"lat":52.367335978357595,"lon":31.01910638809204}},{"stopId":"1081356","name":"ул. Белого","bearing":181,"stopType":1,"address":"улица Белого, Гомель","point":{"lat":52.36642566571729,"lon":31.018569231033325}},{"stopId":"1082380","name":"ул. Каленикова","bearing":3,"stopType":1,"address":"улица Белого, Гомель","point":{"lat":52.36323228061978,"lon":31.018848345565797}},{"stopId":"1083404","name":"ул. Каленикова","bearing":187,"stopType":1,"address":"улица Белого, Гомель","point":{"lat":52.36237994593622,"lon":31.01841902732849}},{"stopId":"1084428","name":"ул. Алмазная","bearing":30,"stopType":1,"address":"улица Белого, Гомель","point":{"lat":52.36039669050116,"lon":31.017614603042603}},{"stopId":"1085452","name":"ул. Алмазная","bearing":211,"stopType":1,"address":"улица Белого, Гомель","point":{"lat":52.36005128929404,"lon":31.017050862312317}},{"stopId":"10991628","name":"1-я школа","bearing":268,"stopType":1,"address":", Гомель","point":{"lat":52.37153641321898,"lon":31.02898180480116}},{"stopId":"10992652","name":"пер.Ильича","bearing":64,"stopType":1,"address":"улица Зайцева, Гомель","point":{"lat":52.37005927291799,"lon":31.02291452884674}},{"stopId":"10993676","name":"пер.Ильича","bearing":248,"stopType":1,"address":"улица Зайцева, Гомель","point":{"lat":52.369939939020476,"lon":31.021306037902832}},{"stopId":"10336268","name":"2-я школа","bearing":185,"stopType":1,"address":"улица Ильича, Гомель","point":{"lat":52.391270113772386,"lon":31.029693365097046}},{"stopId":"10337292","name":"ул. Ленинградская","bearing":184,"stopType":1,"address":"улица Ильича, Гомель","point":{"lat":52.38535058338137,"lon":31.029370307922363}},{"stopId":"10338316","name":"35-й микрорайон","bearing":179,"stopType":1,"address":"улица Ильича, Гомель","point":{"lat":52.38181599543208,"lon":31.02947223186493}},{"stopId":"10348556","name":"улица \"9 Мая\"","bearing":1,"stopType":1,"address":"улица Ильича, Гомель","point":{"lat":52.37670512958811,"lon":31.029788494110107}},{"stopId":"10349580","name":"35-й микрорайон","bearing":0,"stopType":1,"address":"улица Ильича, Гомель","point":{"lat":52.38248233869409,"lon":31.02968454360962}},{"stopId":"10350604","name":"ул. \"Ленинградская\"","bearing":359,"stopType":1,"address":"улица Ильича, Гомель","point":{"lat":52.3861056334365,"lon":31.02960515022278}},{"stopId":"10351628","name":"2-я школа","bearing":2,"stopType":1,"address":"улица Ильича, Гомель","point":{"lat":52.389784570471626,"lon":31.029857635498047}},{"stopId":"1005580","name":"ул. Севастопольская","bearing":224,"stopType":1,"address":"Севастопольская улица, Гомель","point":{"lat":52.37682739937772,"lon":31.01355242729187}},{"stopId":"1006604","name":"Магазин Южный","bearing":52,"stopType":1,"address":"Севастопольская улица, Гомель","point":{"lat":52.377512667718456,"lon":31.015339732170105}},{"stopId":"1007628","name":"Ж/д переезд","bearing":247,"stopType":1,"address":"Севастопольская улица, Гомель","point":{"lat":52.37900119989605,"lon":31.02002203464508}},{"stopId":"1008652","name":"Ж/д переезд","bearing":19,"stopType":1,"address":"Севастопольская улица, Гомель","point":{"lat":52.379788027418975,"lon":31.021615386009216}},{"stopId":"1009676","name":"Ликеро-водочный завод","bearing":200,"stopType":1,"address":"Севастопольская улица, Гомель","point":{"lat":52.383304236509844,"lon":31.023412346839905}},{"stopId":"1010700","name":"Ликеро-водочный завод","bearing":19,"stopType":1,"address":"Севастопольская улица, Гомель","point":{"lat":52.384340346745766,"lon":31.02430248260498}},{"stopId":"1011724","name":"предприятие \"Гомельдрев\"","bearing":225,"stopType":1,"address":"Севастопольская улица, Гомель","point":{"lat":52.38577462179498,"lon":31.026034712791443}},{"stopId":"5997580","name":"ул. Склезнёва","bearing":100,"stopType":1,"address":"улица Склезнёва, Гомель","point":{"lat":52.38903454950156,"lon":31.03427641181946}},{"stopId":"5101592","name":"Лисички","bearing":0,"stopType":3,"address":", Улуковский сельский Совет","point":{"lat":52.3839298,"lon":31.0619512}},{"stopId":"11290636","name":"Дачи","bearing":126,"stopType":1,"address":"Н4096, Зябровский сельский Совет","point":{"lat":52.375189201817776,"lon":31.06564223761671}},{"stopId":"11291660","name":"Дачи","bearing":311,"stopType":1,"address":"Н4096, Гомель","point":{"lat":52.37606070617394,"lon":31.064408540725708}},{"stopId":"10370060","name":"Микрорайон \"Молодёжный\"","bearing":254,"stopType":1,"address":"Речицкий проспект, Гомель","point":{"lat":52.40461374355548,"lon":30.914485454559326}},{"stopId":"4253708","name":"пов. на кладбище \"Осовцы\"","bearing":346,"stopType":1,"address":", Гомель","point":{"lat":52.386104583740234,"lon":30.914472579956055}},{"stopId":"4312076","name":"Технический университет ","bearing":119,"stopType":1,"address":"проспект Октября, Гомель","point":{"lat":52.40425106664901,"lon":30.94128429889679}},{"stopId":"4315148","name":"Технический университет","bearing":287,"stopType":1,"address":"проспект Октября, Гомель","point":{"lat":52.404628713486694,"lon":30.9403239944458}},{"stopId":"1034252","name":"д. Осовцы","bearing":284,"stopType":1,"address":"улица Победы, Бобовичский сельский Совет","point":{"lat":52.38141267894961,"lon":30.91661310195923}},{"stopId":"10699788","name":"ул. Косарева","bearing":167,"stopType":1,"address":", Гомель","point":{"lat":52.40470135852057,"lon":30.919767618132763}},{"stopId":"1035276","name":"д. Осовцы","bearing":265,"stopType":1,"address":"улица Карла Маркса, Бобовичский сельский Совет","point":{"lat":52.37726060240121,"lon":30.931458711624146}},{"stopId":"10700812","name":"ул. 70 лет БССР","bearing":66,"stopType":1,"address":"улица 70 лет БССР, Гомель","point":{"lat":52.40235248697971,"lon":30.91946792602539}},{"stopId":"10701836","name":"ул. 70 лет БССР","bearing":232,"stopType":1,"address":", Гомель","point":{"lat":52.401913910935775,"lon":30.917300701141357}},{"stopId":"10702860","name":"МЖК","bearing":45,"stopType":1,"address":", Гомель","point":{"lat":52.39990248500448,"lon":30.91420030593872}},{"stopId":"10703884","name":"МЖК","bearing":224,"stopType":1,"address":", Гомель","point":{"lat":52.39981837365928,"lon":30.913492441177368}},{"stopId":"10910732","name":"Торгово-экономический университет","bearing":64,"stopType":1,"address":"проспект Октября, Гомель","point":{"lat":52.403941893883456,"lon":30.933314323425293}},{"stopId":"10911756","name":"Торгово-экономический университет","bearing":263,"stopType":1,"address":"проспект Октября, Гомель","point":{"lat":52.404856201427194,"lon":30.936140656471252}},{"stopId":"10921996","name":"Школа","bearing":230,"stopType":1,"address":"проспект Октября, Гомель","point":{"lat":52.40235459749097,"lon":30.929155349684887}},{"stopId":"10927116","name":"\"Давыдовка\"","bearing":51,"stopType":1,"address":"проспект Октября, Гомель","point":{"lat":52.39947884457063,"lon":30.92380166049116}},{"stopId":"10930188","name":"ул.Косарева","bearing":341,"stopType":1,"address":"улица Косарева, Гомель","point":{"lat":52.40013194459942,"lon":30.922492265701294}},{"stopId":"251916","name":"Технический университет","bearing":80,"stopType":1,"address":"проспект Октября, Гомель","point":{"lat":52.40507829696121,"lon":30.942041873931885}},{"stopId":"253964","name":"Технический университет","bearing":262,"stopType":1,"address":"проспект Октября, Гомель","point":{"lat":52.405165961975754,"lon":30.941383957862854}},{"stopId":"4815884","name":"д. Осовцы","bearing":106,"stopType":1,"address":"улица Победы, Бобовичский сельский Совет","point":{"lat":52.3804187967906,"lon":30.916940496253968}},{"stopId":"4816908","name":"д. Осовцы","bearing":91,"stopType":1,"address":"улица Карла Маркса, Бобовичский сельский Совет","point":{"lat":52.377266909313306,"lon":30.932283997535706}},{"stopId":"428044","name":"Кладбище \"Осовцы\"","bearing":254,"stopType":1,"address":", Гомель","point":{"lat":52.38740193180215,"lon":30.919209645080567}},{"stopId":"6138892","name":"ул. Прохладная","bearing":93,"stopType":1,"address":"Прохладная улица, Бобовичский сельский Совет","point":{"lat":52.377074013116825,"lon":30.922546313095093}},{"stopId":"6139916","name":"ул. Прохладная","bearing":273,"stopType":1,"address":"улица Победы, Бобовичский сельский Совет","point":{"lat":52.37714623272599,"lon":30.921998262405396}},{"stopId":"510988","name":"\"ГБСК - 21\"","bearing":169,"stopType":1,"address":", Гомель","point":{"lat":52.38578796386719,"lon":30.914451599121094}},{"stopId":"1002508","name":"ул. Зайцева","bearing":356,"stopType":1,"address":"улица Будённого, Гомель","point":{"lat":52.36953276032648,"lon":31.013311624526978}},{"stopId":"1003532","name":"ул. Будённого","bearing":178,"stopType":1,"address":"улица Будённого, Гомель","point":{"lat":52.37375634003062,"lon":31.01282787322998}},{"stopId":"1004556","name":"ул. Будённого","bearing":0,"stopType":1,"address":"улица Будённого, Гомель","point":{"lat":52.37428375663711,"lon":31.01290786266327}},{"stopId":"1071116","name":"пов. Севруки","bearing":88,"stopType":1,"address":"1-я Транзитная улица, Гомель","point":{"lat":52.36855708212026,"lon":31.005669832229614}},{"stopId":"1079308","name":"ул. Зайцева","bearing":221,"stopType":1,"address":"улица Зайцева, Гомель","point":{"lat":52.36955254854876,"lon":31.01297967224121}},{"stopId":"10994700","name":"Магазин","bearing":259,"stopType":1,"address":"улица Зайцева, Гомель","point":{"lat":52.36921751782713,"lon":31.01209580898285}},{"stopId":"10995724","name":"Магазин","bearing":81,"stopType":1,"address":"улица Зайцева, Гомель","point":{"lat":52.36900132452782,"lon":31.01212739944458}},{"stopId":"10996748","name":"пов.д.Севруки","bearing":0,"stopType":1,"address":"Р150, Гомель","point":{"lat":52.36932319653969,"lon":31.005324840545654}},{"stopId":"10997772","name":"пер. Транзитный","bearing":182,"stopType":1,"address":"Р150, Гомель","point":{"lat":52.373089914242044,"lon":31.004809379577637}},{"stopId":"10998796","name":"ул.Севастопольская","bearing":0,"stopType":1,"address":"Р150, Гомель","point":{"lat":52.3743252316614,"lon":31.005432605743408}},{"stopId":"10999820","name":"река Сож","bearing":167,"stopType":1,"address":", Гомель","point":{"lat":52.37897498909359,"lon":31.004021525382996}},{"stopId":"11000844","name":"река Сож","bearing":346,"stopType":1,"address":", Гомель","point":{"lat":52.37978607107123,"lon":31.0043066740036}},{"stopId":"530444","name":"ул.Транзитная","bearing":251,"stopType":1,"address":", Чёнковский сельский Совет","point":{"lat":52.36861598162924,"lon":31.00405328063965}},{"stopId":"10470412","name":"Машиностроительный колледж","bearing":333,"stopType":1,"address":"Объездная улица, Гомель","point":{"lat":52.40481445009256,"lon":30.905725955963135}},{"stopId":"4274188","name":"Солнечная","bearing":258,"stopType":1,"address":", Гомель","point":{"lat":52.4029197691628,"lon":30.906103134155273}},{"stopId":"10372108","name":"Солнечная","bearing":248,"stopType":1,"address":"Речицкий проспект, Гомель","point":{"lat":52.40340278580277,"lon":30.908374071121216}},{"stopId":"10704908","name":"Онкологический диспансер","bearing":258,"stopType":1,"address":"Медицинская улица, Гомель","point":{"lat":52.39649942459624,"lon":30.906814217567444}},{"stopId":"10705932","name":"ул. Медицинская","bearing":70,"stopType":1,"address":"Медицинская улица, Гомель","point":{"lat":52.396004324796785,"lon":30.904717564582825}},{"stopId":"10707980","name":"ул. Давыдовская","bearing":347,"stopType":1,"address":"Давыдовская улица, Гомель","point":{"lat":52.397965621253775,"lon":30.910272598220043}},{"stopId":"1056780","name":"Машиностроительный колледж","bearing":157,"stopType":1,"address":"Объездная улица, Гомель","point":{"lat":52.40541706338475,"lon":30.904916925964354}},{"stopId":"1060876","name":"Солнечная","bearing":337,"stopType":1,"address":"Объездная улица, Гомель","point":{"lat":52.403688229472934,"lon":30.906643390655518}},{"stopId":"258060","name":"\"Давыдовская сядиба\"","bearing":168,"stopType":1,"address":"Давыдовская улица, Гомель","point":{"lat":52.39596614394368,"lon":30.910798237609864}},{"stopId":"11033612","name":"Солнечная","bearing":77,"stopType":1,"address":"Речицкий проспект, Гомель","point":{"lat":52.403213412944424,"lon":30.90835189819336}},{"stopId":"4932620","name":"Солнечная","bearing":151,"stopType":1,"address":"Давыдовская улица, Гомель","point":{"lat":52.40201054339274,"lon":30.90790145187378}},{"stopId":"505868","name":"Солнечная","bearing":24,"stopType":1,"address":"Речицкий проспект, Гомель","point":{"lat":52.402664486212565,"lon":30.907889485359192}},{"stopId":"10250252","name":"Школа","bearing":148,"stopType":1,"address":"Советская улица, Ерёминский сельский Совет","point":{"lat":52.50668962088911,"lon":30.946197748184204}},{"stopId":"10253324","name":"Школа","bearing":328,"stopType":1,"address":"Советская улица, Ерёминский сельский Совет","point":{"lat":52.50734329223633,"lon":30.945999145507812}},{"stopId":"4157452","name":"ул. Сурганова","bearing":241,"stopType":1,"address":"улица Сурганова, Ерёминский сельский Совет","point":{"lat":52.515650236155196,"lon":30.962109565734863}},{"stopId":"1174540","name":"ул. Сурганова","bearing":60,"stopType":1,"address":"улица Сурганова, Ерёминский сельский Совет","point":{"lat":52.51545473207968,"lon":30.962077140808105}},{"stopId":"1175564","name":"Агросервис","bearing":60,"stopType":1,"address":"улица Сурганова, Ерёминский сельский Совет","point":{"lat":52.51409776072641,"lon":30.957945346832275}},{"stopId":"1176588","name":"Агросервис","bearing":241,"stopType":1,"address":"улица Сурганова, Ерёминский сельский Совет","point":{"lat":52.51439197511752,"lon":30.95835280418396}},{"stopId":"10870796","name":"Переезд","bearing":82,"stopType":1,"address":"Линейная улица, Ерёминский сельский Совет","point":{"lat":52.5120539309715,"lon":30.94906234741211}},{"stopId":"10871820","name":"Переезд","bearing":262,"stopType":1,"address":"Линейная улица, Ерёминский сельский Совет","point":{"lat":52.512231422584975,"lon":30.948289155960083}},{"stopId":"11136012","name":"ул.Лесная","bearing":327,"stopType":1,"address":"Советская улица, Ерёминский сельский Совет","point":{"lat":52.500227341369296,"lon":30.95430338382721}},{"stopId":"11137036","name":"ул.Лесная","bearing":143,"stopType":1,"address":"Советская улица, Ерёминский сельский Совет","point":{"lat":52.49871152436128,"lon":30.9557626247406}},{"stopId":"11138060","name":"ул.Майская","bearing":327,"stopType":1,"address":"Советская улица, Ерёминский сельский Совет","point":{"lat":52.4946054223383,"lon":30.960381388664246}},{"stopId":"11139084","name":"ул.Майская","bearing":153,"stopType":1,"address":"Советская улица, Ерёминский сельский Совет","point":{"lat":52.49334465923468,"lon":30.961079120635986}},{"stopId":"5210136","name":"Ерёмино","bearing":0,"stopType":3,"address":"Линейная улица, Ерёминский сельский Совет","point":{"lat":52.5111756,"lon":30.9532661}},{"stopId":"11361292","name":"ул. Серегина","bearing":245,"stopType":1,"address":"улица Пенязькова, Гомель","point":{"lat":52.39852342602246,"lon":30.958890245246888}},{"stopId":"11362316","name":"ул. Серегина","bearing":67,"stopType":1,"address":"улица Пенязькова, Гомель","point":{"lat":52.39882805388104,"lon":30.961310386657715}},{"stopId":"5184524","name":"Улица Полины Гельман","bearing":148,"stopType":1,"address":"улица Денисенко, Гомель","point":{"lat":52.395450592041016,"lon":30.953285217285156}},{"stopId":"5185548","name":"59-й микрорайон","bearing":58,"stopType":1,"address":"улица Денисенко, Гомель","point":{"lat":52.393125672729596,"lon":30.960944175720215}},{"stopId":"3962892","name":"мкр-н \"Шведская горка\"","bearing":77,"stopType":1,"address":"улица Пенязькова, Гомель","point":{"lat":52.396598224700206,"lon":30.952973292160035}},{"stopId":"10430476","name":"ОАО \"Татьяна\"","bearing":244,"stopType":1,"address":"проспект Октября, Гомель","point":{"lat":52.40831251454501,"lon":30.962045431137085}},{"stopId":"10431500","name":"Мотороремонтный Завод","bearing":259,"stopType":1,"address":"проспект Октября, Гомель","point":{"lat":52.40664725073541,"lon":30.955533742904663}},{"stopId":"10432524","name":"Обл. больница","bearing":260,"stopType":1,"address":"проспект Октября, Гомель","point":{"lat":52.40581556715213,"lon":30.947469472885132}},{"stopId":"10434572","name":"Обл. больница","bearing":83,"stopType":1,"address":"проспект Октября, Гомель","point":{"lat":52.405856484382475,"lon":30.949599981307983}},{"stopId":"10435596","name":"Мотороремонтный Завод","bearing":83,"stopType":1,"address":"проспект Октября, Гомель","point":{"lat":52.40626297096147,"lon":30.95363426208496}},{"stopId":"10436620","name":"Магазин Арэса","bearing":63,"stopType":1,"address":"проспект Октября, Гомель","point":{"lat":52.40869742795246,"lon":30.963857889175415}},{"stopId":"4310028","name":"мкр-н \"Шведская горка\"","bearing":345,"stopType":1,"address":"улица Пенязькова, Гомель","point":{"lat":52.39704513549805,"lon":30.95208740234375}},{"stopId":"4311052","name":"ул. Братьев Лизюковых","bearing":139,"stopType":1,"address":"улица Пенязькова, Гомель","point":{"lat":52.401861900487674,"lon":30.946497559547424}},{"stopId":"4316172","name":"ул. Братьев Лизюковых","bearing":316,"stopType":1,"address":"улица Братьев Лизюковых, Гомель","point":{"lat":52.402748273514575,"lon":30.945549249649048}},{"stopId":"1072140","name":"ул. Карбышева","bearing":155,"stopType":1,"address":"проспект Октября, Гомель","point":{"lat":52.40766566568702,"lon":30.961605548858643}},{"stopId":"1073164","name":"ул. Карбышева","bearing":331,"stopType":1,"address":"улица Карбышева, Гомель","point":{"lat":52.40637439195143,"lon":30.96306538581848}},{"stopId":"1074188","name":"ОАО \"Милкавита\"","bearing":165,"stopType":1,"address":"улица Карбышева, Гомель","point":{"lat":52.404023346174625,"lon":30.964471101760864}},{"stopId":"1075212","name":"ул. Пенязькова","bearing":334,"stopType":1,"address":"улица Карбышева, Гомель","point":{"lat":52.400779724121094,"lon":30.966623306274414}},{"stopId":"1076236","name":"ул. Пенязькова","bearing":249,"stopType":1,"address":"улица Пенязькова, Гомель","point":{"lat":52.40011978149414,"lon":30.964820861816406}},{"stopId":"235532","name":"Парк Фестивальный","bearing":69,"stopType":1,"address":"Речицкий проспект, Гомель","point":{"lat":52.41067919853939,"lon":30.945961997795106}},{"stopId":"6129676","name":"Улица Григория Денисенко","bearing":38,"stopType":1,"address":"улица Денисенко, Гомель","point":{"lat":52.39593505859375,"lon":30.965255737304688}},{"stopId":"10363916","name":"Проспект Речицкий","bearing":238,"stopType":1,"address":", Гомель","point":{"lat":52.41822375031912,"lon":30.967008352279663}},{"stopId":"10364940","name":"Гомельоблавтотранс","bearing":237,"stopType":1,"address":"Речицкий проспект, Гомель","point":{"lat":52.41462161674527,"lon":30.95713472366333}},{"stopId":"10365964","name":"Сквер Янки Купалы","bearing":239,"stopType":1,"address":"Речицкий проспект, Гомель","point":{"lat":52.41264338272124,"lon":30.951815128326416}},{"stopId":"10376204","name":"ДК \"Фестивальный\"","bearing":60,"stopType":1,"address":"Речицкий проспект, Гомель","point":{"lat":52.41300104424171,"lon":30.95321011543274}},{"stopId":"10377228","name":"Гомельоблавтотранс","bearing":58,"stopType":1,"address":"Речицкий проспект, Гомель","point":{"lat":52.41508162849326,"lon":30.958895325660706}},{"stopId":"10382348","name":"Предприятие Гомельгеодезцентр","bearing":279,"stopType":1,"address":"улица Барыкина, Гомель","point":{"lat":52.41970005317706,"lon":30.966814637184143}},{"stopId":"10397708","name":"Завод пусковых двигателей","bearing":287,"stopType":1,"address":"улица Барыкина, Гомель","point":{"lat":52.42118938610602,"lon":30.953214690971375}},{"stopId":"10398732","name":"Завод пусковых двигателей","bearing":106,"stopType":1,"address":"улица Барыкина, Гомель","point":{"lat":52.42087205164492,"lon":30.95356874256134}},{"stopId":"10399756","name":"Гомельский автобусный парк №1","bearing":98,"stopType":1,"address":"улица Барыкина, Гомель","point":{"lat":52.41980878213228,"lon":30.963401720809937}},{"stopId":"10400780","name":"Мебельная фабрика \"Прогресс\"","bearing":278,"stopType":1,"address":"улица Барыкина, Гомель","point":{"lat":52.42015229781319,"lon":30.9623502948761}},{"stopId":"10462220","name":"Администрация Советского района","bearing":62,"stopType":1,"address":"Речицкий проспект, Гомель","point":{"lat":52.416426966723776,"lon":30.96252202987671}},{"stopId":"10274828","name":"Завод \"Электроаппаратура\"","bearing":337,"stopType":1,"address":"Советская улица, Гомель","point":{"lat":52.47190199330484,"lon":30.979196667671204}},{"stopId":"10275852","name":"Завод \"Электроаппаратура\"","bearing":156,"stopType":1,"address":"Советская улица, Гомель","point":{"lat":52.47128649328379,"lon":30.97934317588806}},{"stopId":"10315788","name":"ул. Каменщикова","bearing":122,"stopType":1,"address":"улица Каменщикова, Гомель","point":{"lat":52.471576545251516,"lon":31.011382579803467}},{"stopId":"10323980","name":"ул. Крупской","bearing":16,"stopType":1,"address":"улица Крупской, Гомель","point":{"lat":52.46794946870328,"lon":31.007660627365112}},{"stopId":"10325004","name":"ул. Крупской","bearing":193,"stopType":1,"address":"улица Крупской, Гомель","point":{"lat":52.46832857108322,"lon":31.00751042366028}},{"stopId":"10326028","name":"ул. Каменщикова","bearing":198,"stopType":1,"address":"улица Крупской, Гомель","point":{"lat":52.47216473281263,"lon":31.009226083755493}},{"stopId":"10445836","name":"ул. Героев Подпольщиков","bearing":66,"stopType":1,"address":"улица Ефремова, Гомель","point":{"lat":52.467210513490365,"lon":30.975725412368774}},{"stopId":"10447884","name":"ул. Героев Подпольщиков","bearing":225,"stopType":1,"address":"улица Ефремова, Гомель","point":{"lat":52.46668685247156,"lon":30.973814010620117}},{"stopId":"1116172","name":"ул. Маневича","bearing":69,"stopType":1,"address":"улица Маневича, Гомель","point":{"lat":52.4700861515837,"lon":30.97039294242859}},{"stopId":"1147916","name":"Администрация СЭЗ \"Гомель-Ратон\"","bearing":313,"stopType":1,"address":"улица Лепешинского, Гомель","point":{"lat":52.47975158691406,"lon":30.98678970336914}},{"stopId":"1168396","name":"ул. Каменщикова","bearing":288,"stopType":1,"address":"улица Лепешинского, Гомель","point":{"lat":52.47255308521956,"lon":31.008854434776307}},{"stopId":"1170444","name":"Газетный комплекс","bearing":354,"stopType":1,"address":"улица Лепешинского, Гомель","point":{"lat":52.47378660366795,"lon":31.00003969669342}},{"stopId":"1171468","name":"завод \"Коралл\"","bearing":0,"stopType":1,"address":", Гомель","point":{"lat":52.47535705566406,"lon":30.99949836730957}},{"stopId":"103436","name":"САЛЕО-Гомель","bearing":244,"stopType":1,"address":"улица Федюнинского, Гомель","point":{"lat":52.47507861582944,"lon":30.981200859832764}},{"stopId":"10872844","name":"ул.Каменщикова","bearing":18,"stopType":1,"address":"улица Крупской, Гомель","point":{"lat":52.47282467188243,"lon":31.009873747779064}},{"stopId":"10963980","name":"Администрация СЭЗ \"Гомель-Ратон\"","bearing":39,"stopType":1,"address":"улица Федюнинского, Гомель","point":{"lat":52.47855758666992,"lon":30.987150192260742}},{"stopId":"10965004","name":"МИРТЕК","bearing":221,"stopType":1,"address":", Гомель","point":{"lat":52.47870635986328,"lon":30.986862182617188}},{"stopId":"10966028","name":"САЛЕО-Гомель","bearing":48,"stopType":1,"address":", Гомель","point":{"lat":52.47527878366609,"lon":30.9824401140213}},{"stopId":"10969100","name":"САЛЕО-Гомель","bearing":244,"stopType":1,"address":"улица Федюнинского, Гомель","point":{"lat":52.4744439777213,"lon":30.979672074317932}},{"stopId":"5988364","name":"завод \"Коралл\" приб","bearing":349,"stopType":1,"address":"улица Лепешинского, Гомель","point":{"lat":52.476563396739266,"lon":30.999420881271362}},{"stopId":"11142156","name":"САЛЕО-Гомель","bearing":165,"stopType":1,"address":"Советская улица, Гомель","point":{"lat":52.47674393673431,"lon":30.97505486011505}},{"stopId":"11143180","name":"САЛЕО-Гомель","bearing":336,"stopType":1,"address":", Гомель","point":{"lat":52.47574576388301,"lon":30.9760525226593}},{"stopId":"11158540","name":"ул.Маневича","bearing":245,"stopType":1,"address":"улица Маневича, Гомель","point":{"lat":52.4704103644829,"lon":30.970187783194714}},{"stopId":"10270732","name":"Рембыттехника","bearing":331,"stopType":1,"address":"Советская улица, Гомель","point":{"lat":52.45061384395502,"lon":30.99595022201538}},{"stopId":"10271756","name":"ул. Тимофеенко","bearing":334,"stopType":1,"address":"Советская улица, Гомель","point":{"lat":52.45419692993164,"lon":30.99307632446289}},{"stopId":"10278924","name":"Свято-Троицкий храм","bearing":152,"stopType":1,"address":", Гомель","point":{"lat":52.45574239071174,"lon":30.99153780937195}},{"stopId":"10279948","name":"Рембыттехника","bearing":158,"stopType":1,"address":"Советская улица, Гомель","point":{"lat":52.45178982720882,"lon":30.994613647460938}},{"stopId":"10311692","name":"ул. Малайчука","bearing":24,"stopType":1,"address":"улица Малайчука, Гомель","point":{"lat":52.45703252776782,"lon":30.992300033569336}},{"stopId":"10312716","name":"Водоканал","bearing":67,"stopType":1,"address":"улица Малайчука, Гомель","point":{"lat":52.45955982436933,"lon":30.995772123336792}},{"stopId":"10313740","name":"Лицей строителей","bearing":62,"stopType":1,"address":"улица Малайчука, Гомель","point":{"lat":52.4608377638376,"lon":31.00025177001953}},{"stopId":"10321932","name":"Лицей строителей","bearing":244,"stopType":1,"address":"улица Малайчука, Гомель","point":{"lat":52.461165752835186,"lon":31.00044584274292}},{"stopId":"10322956","name":"Водоканал","bearing":244,"stopType":1,"address":"улица Малайчука, Гомель","point":{"lat":52.45957403862857,"lon":30.995032787322998}},{"stopId":"1018892","name":"Ул. Федосеенко","bearing":156,"stopType":1,"address":"улица Кирова, Гомель","point":{"lat":52.44897932686985,"lon":30.991671562194824}},{"stopId":"1019916","name":"Ул. Федосеенко","bearing":335,"stopType":1,"address":"улица Кирова, Гомель","point":{"lat":52.45018318920236,"lon":30.990968346595764}},{"stopId":"1020940","name":"Свято-Троицкий храм","bearing":209,"stopType":1,"address":"улица Кирова, Гомель","point":{"lat":52.45543244982991,"lon":30.989917278289795}},{"stopId":"1058828","name":"ул. Юбилейная","bearing":156,"stopType":1,"address":"Юбилейная улица, Гомель","point":{"lat":52.46016243198153,"lon":30.999976754188538}},{"stopId":"10923020","name":"м-н Океан","bearing":244,"stopType":1,"address":", Гомель","point":{"lat":52.451620900418334,"lon":31.00144112110138}},{"stopId":"10924044","name":"м-н Океан","bearing":66,"stopType":1,"address":", Гомель","point":{"lat":52.45165305404733,"lon":31.00241780281067}},{"stopId":"10925068","name":"Дворец легкой атлетики","bearing":339,"stopType":1,"address":"Юбилейная улица, Гомель","point":{"lat":52.45343637752711,"lon":31.005657196044922}},{"stopId":"10926092","name":"Дворец легкой атлетики","bearing":159,"stopType":1,"address":"Юбилейная улица, Гомель","point":{"lat":52.453604499796114,"lon":31.005057096481323}},{"stopId":"10928140","name":"Торговый центр","bearing":336,"stopType":1,"address":"Юбилейная улица, Гомель","point":{"lat":52.457126790832895,"lon":31.00269091129303}},{"stopId":"10929164","name":"\"Торговый центр\"","bearing":162,"stopType":1,"address":"Юбилейная улица, Гомель","point":{"lat":52.45736468905551,"lon":31.002047300338745}},{"stopId":"5538840","name":"Сож","bearing":0,"stopType":3,"address":"Механическая улица, Гомель","point":{"lat":52.4977696,"lon":30.9869807}},{"stopId":"1063948","name":"Механическая улица-1","bearing":125,"stopType":1,"address":"Механическая улица, Гомель","point":{"lat":52.495486692553904,"lon":30.990488409996033}},{"stopId":"1064972","name":"Механическая улица-1","bearing":303,"stopType":1,"address":"Механическая улица, Гомель","point":{"lat":52.49655629288356,"lon":30.988267421722412}},{"stopId":"1065996","name":"Механическая улица-2","bearing":123,"stopType":1,"address":"Механическая улица, Гомель","point":{"lat":52.49806523907395,"lon":30.983702540397644}},{"stopId":"1067020","name":"Механическая улица-2","bearing":299,"stopType":1,"address":"Механическая улица, Гомель","point":{"lat":52.4984769429159,"lon":30.983070254325867}},{"stopId":"1068044","name":"Механическая улица-3","bearing":72,"stopType":1,"address":"Механическая улица, Гомель","point":{"lat":52.499862096213086,"lon":30.9763685464859}},{"stopId":"1069068","name":"Механическая улица-3","bearing":257,"stopType":1,"address":"Механическая улица, Гомель","point":{"lat":52.49990454616704,"lon":30.97559130191803}},{"stopId":"1070092","name":"пос. Новая Жизнь","bearing":0,"stopType":1,"address":"Механическая улица, Гомель","point":{"lat":52.49834442138672,"lon":30.969951629638672}},{"stopId":"1158156","name":"ул. Надежды","bearing":352,"stopType":1,"address":"Аграрная улица, Гомель","point":{"lat":52.49447448098621,"lon":30.971781253814697}},{"stopId":"6084620","name":"Лопатино церковь","bearing":186,"stopType":1,"address":"улица Лопатино, Поколюбичский сельский Совет","point":{"lat":52.54295649980892,"lon":30.988871977615357}},{"stopId":"6090764","name":"пос. Маяк (прям.)","bearing":5,"stopType":1,"address":"Лопатинская улица, Поколюбичский сельский Совет","point":{"lat":52.519639874670375,"lon":30.98302476196289}},{"stopId":"6091788","name":"пос. Маяк (обр.)","bearing":191,"stopType":1,"address":"Мирная улица, Поколюбичский сельский Совет","point":{"lat":52.52154050105356,"lon":30.983293771743774}},{"stopId":"6093836","name":"Маяк - 1 (прям.)","bearing":258,"stopType":1,"address":", Ерёминский сельский Совет","point":{"lat":52.51768307772664,"lon":30.969667361068726}},{"stopId":"6094860","name":"Маяк - 1 (обр.)","bearing":95,"stopType":1,"address":", Ерёминский сельский Совет","point":{"lat":52.517649353355836,"lon":30.970782995224}},{"stopId":"448524","name":"Лопатино","bearing":5,"stopType":1,"address":"улица Лопатино, Поколюбичский сельский Совет","point":{"lat":52.5427569303957,"lon":30.989065885543823}},{"stopId":"449548","name":"Лопатино","bearing":187,"stopType":1,"address":"улица Лопатино, Поколюбичский сельский Совет","point":{"lat":52.54251520151825,"lon":30.988711833953857}},{"stopId":"450572","name":"Красный маяк","bearing":184,"stopType":1,"address":"Лопатинская улица, Поколюбичский сельский Совет","point":{"lat":52.52475135846789,"lon":30.983927607536316}},{"stopId":"451596","name":"Красный маяк","bearing":7,"stopType":1,"address":"Совхозная улица, Поколюбичский сельский Совет","point":{"lat":52.52557537072118,"lon":30.98452854156494}},{"stopId":"454668","name":"Нефтебаза","bearing":348,"stopType":1,"address":"Гомель - Лопатино - Остров, Поколюбичский сельский Совет","point":{"lat":52.5009122863969,"lon":30.991356253623962}},{"stopId":"455692","name":"Нефтебаза","bearing":0,"stopType":1,"address":"Гомель - Лопатино - Остров, Поколюбичский сельский Совет","point":{"lat":52.50028610229492,"lon":30.991147994995117}},{"stopId":"5008396","name":"Нефтебаза (обр)","bearing":184,"stopType":1,"address":"Гомель - Лопатино - Остров, Поколюбичский сельский Совет","point":{"lat":52.516154882061024,"lon":30.98202073574066}},{"stopId":"5215256","name":"Никольский Переезд","bearing":0,"stopType":3,"address":"проспект Космонавтов, Гомель","point":{"lat":52.4424664,"lon":30.9760549}},{"stopId":"5216280","name":"Гомель-Нечётный","bearing":0,"stopType":3,"address":"Старочерниговская улица, Гомель","point":{"lat":52.4498278,"lon":30.9884527}},{"stopId":"10242060","name":"Никольская Церковь","bearing":275,"stopType":1,"address":"Полесская улица, Гомель","point":{"lat":52.43938225709692,"lon":30.985214114189148}},{"stopId":"10243084","name":"Электротехнический завод","bearing":332,"stopType":1,"address":"Полесская улица, Гомель","point":{"lat":52.44057247134243,"lon":30.977941393852234}},{"stopId":"10244108","name":"ДК \"Гомсельмаш\"","bearing":325,"stopType":1,"address":"проспект Космонавтов, Гомель","point":{"lat":52.44710595597236,"lon":30.971229195594788}},{"stopId":"10404876","name":"ул.Бакунина","bearing":12,"stopType":1,"address":"улица Богдана Хмельницкого, Гомель","point":{"lat":52.42436916654796,"lon":30.973907828330994}},{"stopId":"10405900","name":"ул. Котовского","bearing":7,"stopType":1,"address":"улица Богдана Хмельницкого, Гомель","point":{"lat":52.42844011116294,"lon":30.97490906715393}},{"stopId":"10406924","name":"стадион Локомотив","bearing":12,"stopType":1,"address":"улица Богдана Хмельницкого, Гомель","point":{"lat":52.43152402185525,"lon":30.97560405731201}},{"stopId":"10407948","name":"ул. Ярославская","bearing":14,"stopType":1,"address":"улица Богдана Хмельницкого, Гомель","point":{"lat":52.43798429830448,"lon":30.97752833366394}},{"stopId":"10422284","name":"ДК Гомсельмаша","bearing":136,"stopType":1,"address":"проспект Космонавтов, Гомель","point":{"lat":52.447836184655095,"lon":30.96964430809021}},{"stopId":"10423308","name":"ул. Ярославская","bearing":193,"stopType":1,"address":"улица Богдана Хмельницкого, Гомель","point":{"lat":52.43732319051786,"lon":30.977055311203003}},{"stopId":"10424332","name":"стадион Локомотив","bearing":194,"stopType":1,"address":"Московская улица, Гомель","point":{"lat":52.432181169297515,"lon":30.975555658340454}},{"stopId":"10425356","name":"ул. Котовского","bearing":188,"stopType":1,"address":"улица Котовского, Гомель","point":{"lat":52.42772653957986,"lon":30.97447371482849}},{"stopId":"10426380","name":"ул. Бакунина","bearing":187,"stopType":1,"address":"улица Богдана Хмельницкого, Гомель","point":{"lat":52.423705505298805,"lon":30.973454475402832}},{"stopId":"10454028","name":"Никольская Церковь","bearing":95,"stopType":1,"address":"Полесская улица, Гомель","point":{"lat":52.43947219848633,"lon":30.981721878051758}},{"stopId":"10459148","name":"универсам \"Сельмашевский\"","bearing":49,"stopType":1,"address":"переулок Дворникова, Гомель","point":{"lat":52.450643270841425,"lon":30.97260880470276}},{"stopId":"11006988","name":"Рынок \"Заводской\"","bearing":262,"stopType":1,"address":", Гомель","point":{"lat":52.447270221990934,"lon":30.96930682659149}},{"stopId":"11038732","name":"ЭТЗ","bearing":279,"stopType":1,"address":"Полесская улица, Гомель","point":{"lat":52.44013977050781,"lon":30.97622299194336}},{"stopId":"10360844","name":"3-я школа","bearing":277,"stopType":1,"address":"улица Барыкина, Гомель","point":{"lat":52.41796709328188,"lon":30.98504614830017}},{"stopId":"10380300","name":"3-я школа","bearing":102,"stopType":1,"address":"улица Куйбышева, Гомель","point":{"lat":52.41750607870117,"lon":30.98620867729187}},{"stopId":"107532","name":"Пляж Роповский","bearing":141,"stopType":1,"address":"Р150, Гомель","point":{"lat":52.394808948953056,"lon":30.992906019973756}},{"stopId":"108556","name":"Пляж Роповский","bearing":319,"stopType":1,"address":"Р150, Гомель","point":{"lat":52.39570758921598,"lon":30.992262601852417}},{"stopId":"10913804","name":"мкр-н  \"Любенский\"","bearing":57,"stopType":1,"address":"улица Мележа, Гомель","point":{"lat":52.407948160887464,"lon":30.98677992816084}},{"stopId":"10914828","name":"мкр-н  \"Любенский\"","bearing":178,"stopType":1,"address":"улица Мележа, Гомель","point":{"lat":52.408322988307305,"lon":30.98715591430664}},{"stopId":"10915852","name":"ул. 60 лет СССР","bearing":54,"stopType":1,"address":", Гомель","point":{"lat":52.40614400903963,"lon":30.98253083229065}},{"stopId":"10916876","name":"60 лет СССР","bearing":238,"stopType":1,"address":"улица 60 лет СССР, Гомель","point":{"lat":52.40599429591415,"lon":30.98130774497986}},{"stopId":"11001868","name":"парк Выпускников","bearing":60,"stopType":1,"address":"улица Мележа, Гомель","point":{"lat":52.400617491001654,"lon":30.985707879066467}},{"stopId":"11002892","name":"парк Выпускников","bearing":239,"stopType":1,"address":"улица Мележа, Гомель","point":{"lat":52.400682802150016,"lon":30.98516058921814}},{"stopId":"11003916","name":"оз.Любенское","bearing":343,"stopType":1,"address":"улица Мележа, Гомель","point":{"lat":52.40418207840686,"lon":30.988641619682312}},{"stopId":"11004940","name":"оз.Любенское","bearing":146,"stopType":1,"address":"улица Мележа, Гомель","point":{"lat":52.40329110630446,"lon":30.98898458480835}},{"stopId":"11005964","name":"мкр-н  \"Любенский\"","bearing":181,"stopType":1,"address":", Гомель","point":{"lat":52.40736373628793,"lon":30.987342834472656}},{"stopId":"10266636","name":"фабрика 8 Марта","bearing":333,"stopType":1,"address":"Советская улица, Гомель","point":{"lat":52.43572877370618,"lon":31.007749557495117}},{"stopId":"10267660","name":"универмаг Гомель","bearing":333,"stopType":1,"address":"Советская улица, Гомель","point":{"lat":52.439134287113,"lon":31.005003809928894}},{"stopId":"10268684","name":"Университет им. Ф. Скорины","bearing":333,"stopType":1,"address":"улица Крылова, Гомель","point":{"lat":52.444299971065114,"lon":31.000884532928467}},{"stopId":"10269708","name":"гостиница Турист","bearing":334,"stopType":1,"address":"Советская улица, Гомель","point":{"lat":52.44746943813868,"lon":30.99837028980255}},{"stopId":"10280972","name":"Университет им. Ф. Скорины","bearing":156,"stopType":1,"address":"Советская улица, Гомель","point":{"lat":52.44595173319184,"lon":30.999225616455078}},{"stopId":"10281996","name":"универмаг Гомель","bearing":154,"stopType":1,"address":"Советская улица, Гомель","point":{"lat":52.44049623067402,"lon":31.003493070602417}},{"stopId":"10283020","name":"Цирк","bearing":153,"stopType":1,"address":"Советская улица, Гомель","point":{"lat":52.4347038269043,"lon":31.00821876525879}},{"stopId":"10285068","name":"фабрика 8 Марта","bearing":244,"stopType":1,"address":"проспект Победы, Гомель","point":{"lat":52.43509121188478,"lon":31.005789518356323}},{"stopId":"10308620","name":"ул.Чехова","bearing":71,"stopType":1,"address":"улица Чехова, Гомель","point":{"lat":52.44213976138627,"lon":31.010442852973938}},{"stopId":"10309644","name":"Кондитерская Фабрика Спартак","bearing":252,"stopType":1,"address":"улица Хатаевича, Гомель","point":{"lat":52.44214302967158,"lon":31.00915265083313}},{"stopId":"10455052","name":"ул. Полесская","bearing":278,"stopType":1,"address":"Полесская улица, Гомель","point":{"lat":52.43831905750016,"lon":30.99654459953308}},{"stopId":"10456076","name":"ул. Полесская","bearing":101,"stopType":1,"address":", Гомель","point":{"lat":52.43809616826566,"lon":30.996334314346313}},{"stopId":"10457100","name":"ул. Рогачёвская","bearing":66,"stopType":1,"address":"Рогачёвская улица, Гомель","point":{"lat":52.43788856473994,"lon":31.002646446228027}},{"stopId":"10458124","name":"ул. Рогачёвская","bearing":243,"stopType":1,"address":"Рогачёвская улица, Гомель","point":{"lat":52.438281458368515,"lon":31.003543376922607}},{"stopId":"1014796","name":"ул. Новополеская","bearing":335,"stopType":1,"address":"Новополесская улица, Гомель","point":{"lat":52.440283354016366,"lon":30.99884843826294}},{"stopId":"1015820","name":"ул. Новополеская","bearing":155,"stopType":1,"address":"улица Кирова, Гомель","point":{"lat":52.440384466800865,"lon":30.998564839363098}},{"stopId":"1016844","name":"Авторемонтный завод","bearing":335,"stopType":1,"address":"улица Кирова, Гомель","point":{"lat":52.44684725245861,"lon":30.993598222732544}},{"stopId":"1017868","name":"Авторемонтный завод","bearing":157,"stopType":1,"address":"улица Кирова, Гомель","point":{"lat":52.44620406985391,"lon":30.993860602378845}},{"stopId":"11156492","name":"пр-т Победы","bearing":338,"stopType":1,"address":"улица Кирова, Гомель","point":{"lat":52.43475945200091,"lon":31.00325620174408}},{"stopId":"10362892","name":"кинотеатр \"Октябрь\"","bearing":276,"stopType":1,"address":"улица Барыкина, Гомель","point":{"lat":52.41877198075596,"lon":30.976633071899414}},{"stopId":"10378252","name":"пр-д Куйбышеский","bearing":102,"stopType":1,"address":"Куйбышевский проезд, Гомель","point":{"lat":52.41849295106654,"lon":30.970359802246094}},{"stopId":"10379276","name":"кинотеатр \"Октябрь\"","bearing":102,"stopType":1,"address":"улица Барыкина, Гомель","point":{"lat":52.418328946444184,"lon":30.977888345718384}},{"stopId":"10403852","name":"Военкомат","bearing":13,"stopType":1,"address":"улица Богдана Хмельницкого, Гомель","point":{"lat":52.42068946974832,"lon":30.973000526428223}},{"stopId":"10427404","name":"Военкомат","bearing":189,"stopType":1,"address":"улица Богдана Хмельницкого, Гомель","point":{"lat":52.41999154816296,"lon":30.972475290298462}},{"stopId":"10428428","name":"ул. Чкалова","bearing":188,"stopType":1,"address":"улица Богдана Хмельницкого, Гомель","point":{"lat":52.41738025476775,"lon":30.97193193435669}},{"stopId":"10429452","name":"проспект Октября","bearing":238,"stopType":1,"address":"проспект Октября, Гомель","point":{"lat":52.41107891610437,"lon":30.969772338867188}},{"stopId":"10437644","name":"ул. Быховская","bearing":10,"stopType":1,"address":"улица Богдана Хмельницкого, Гомель","point":{"lat":52.41206125583729,"lon":30.97086477279663}},{"stopId":"10438668","name":"ул.Чкалова","bearing":8,"stopType":1,"address":"улица Богдана Хмельницкого, Гомель","point":{"lat":52.41791189306954,"lon":30.972326517105103}},{"stopId":"10917900","name":"Монумент воинам-интернационалистам ","bearing":61,"stopType":1,"address":"улица 60 лет СССР, Гомель","point":{"lat":52.4047263763171,"lon":30.97851872444153}},{"stopId":"10918924","name":"ул.Жукова","bearing":153,"stopType":1,"address":", Гомель","point":{"lat":52.40611175833217,"lon":30.975708723068237}},{"stopId":"10919948","name":"ул.Жукова","bearing":332,"stopType":1,"address":"улица Богдана Хмельницкого, Гомель","point":{"lat":52.40679827347656,"lon":30.975639700889587}},{"stopId":"10920972","name":"ул.Быховская","bearing":153,"stopType":1,"address":"улица Богдана Хмельницкого, Гомель","point":{"lat":52.41000028308641,"lon":30.972023963928223}},{"stopId":"5995532","name":"пр-д Куйбышевский2","bearing":349,"stopType":1,"address":"Куйбышевский проезд, Гомель","point":{"lat":52.4189018366228,"lon":30.96958689479828}},{"stopId":"1057804","name":"Предприятие \"Каштан\"","bearing":32,"stopType":1,"address":"Гомель — аэропорт Гомель, Гомель","point":{"lat":52.4861606475934,"lon":30.995347023010254}},{"stopId":"1059852","name":"Переезд","bearing":317,"stopType":1,"address":", Гомель","point":{"lat":52.49125727772124,"lon":30.999478578567505}},{"stopId":"1061900","name":"ул. Оранжерейная","bearing":130,"stopType":1,"address":"Оранжерейная улица, Гомель","point":{"lat":52.49317704151545,"lon":30.995434761047363}},{"stopId":"1062924","name":"ул. Оранжерейная","bearing":310,"stopType":1,"address":"Оранжерейная улица, Гомель","point":{"lat":52.4940448103236,"lon":30.99401342868805}},{"stopId":"1148940","name":"Гаражно-строительный кооператив","bearing":154,"stopType":1,"address":"улица Лепешинского, Гомель","point":{"lat":52.481641524486406,"lon":30.983636140823364}},{"stopId":"1149964","name":"Гаражно-строительный кооператив","bearing":302,"stopType":1,"address":"улица Лепешинского, Гомель","point":{"lat":52.482666015625,"lon":30.982221603393555}},{"stopId":"1150988","name":"Поворот на инфекционную больницу","bearing":347,"stopType":1,"address":"улица Лепешинского, Гомель","point":{"lat":52.482967376708984,"lon":30.98299789428711}},{"stopId":"1152012","name":"Инфекционная больница","bearing":0,"stopType":1,"address":", Гомель","point":{"lat":52.48616027832031,"lon":30.985584259033203}},{"stopId":"1153036","name":"ул. Лепешинского","bearing":125,"stopType":1,"address":"улица Лепешинского, Гомель","point":{"lat":52.485467444182945,"lon":30.97418463230133}},{"stopId":"1154060","name":"ул. Лепешинского","bearing":308,"stopType":1,"address":"улица Лепешинского, Гомель","point":{"lat":52.48606002460651,"lon":30.973089933395386}},{"stopId":"1155084","name":"предприятие \"Красная гвоздика\"","bearing":201,"stopType":1,"address":"Аграрная улица, Гомель","point":{"lat":52.48918661579188,"lon":30.970772981643677}},{"stopId":"1156108","name":"предприятие \"Красная гваздика\"","bearing":23,"stopType":1,"address":"Аграрная улица, Гомель","point":{"lat":52.48957175078089,"lon":30.971229434013367}},{"stopId":"1157132","name":"ул. Надежды","bearing":173,"stopType":1,"address":"Аграрная улица, Гомель","point":{"lat":52.49376503454402,"lon":30.971792578697205}},{"stopId":"3383308","name":"Гаражный кооператив №27","bearing":307,"stopType":1,"address":"2-я Витебская улица, Гомель","point":{"lat":52.487111538745296,"lon":31.009685158729553}},{"stopId":"3384332","name":"Гаражный кооператив №27","bearing":126,"stopType":1,"address":"2-я Витебская улица, Гомель","point":{"lat":52.48690918739284,"lon":31.009878635406494}},{"stopId":"10958860","name":"АП №6","bearing":123,"stopType":1,"address":"улица Свиридова, Гомель","point":{"lat":52.48222351074219,"lon":31.00446128845215}},{"stopId":"10959884","name":"АП №6","bearing":307,"stopType":1,"address":"улица Свиридова, Гомель","point":{"lat":52.48299026489258,"lon":31.00304412841797}},{"stopId":"10960908","name":"Предприятие \"Каштан\"","bearing":124,"stopType":1,"address":"улица Свиридова, Гомель","point":{"lat":52.48545649951195,"lon":30.995421290397644}},{"stopId":"10961932","name":"Ратон","bearing":219,"stopType":1,"address":"улица Федюнинского, Гомель","point":{"lat":52.48226618893161,"lon":30.99125349521637}},{"stopId":"10962956","name":"Ратон","bearing":32,"stopType":1,"address":"улица Федюнинского, Гомель","point":{"lat":52.482755889885986,"lon":30.992048025131226}},{"stopId":"11140108","name":"агр. Мичуринский","bearing":337,"stopType":1,"address":"Советская улица, Красненский сельский Совет","point":{"lat":52.48442865546633,"lon":30.96923530101776}},{"stopId":"11141132","name":"агр. Мичуринский","bearing":155,"stopType":1,"address":"Советская улица, Красненский сельский Совет","point":{"lat":52.48313626758106,"lon":30.969799160957336}},{"stopId":"452620","name":"переезд","bearing":36,"stopType":1,"address":"Гомель — аэропорт Гомель, Гомель","point":{"lat":52.49094249265826,"lon":31.00018799304962}},{"stopId":"453644","name":"переезд","bearing":216,"stopType":1,"address":"Гомель — аэропорт Гомель, Гомель","point":{"lat":52.49071493272643,"lon":30.99954342842102}},{"stopId":"10408972","name":"ул. Ефремова","bearing":323,"stopType":1,"address":"проспект Космонавтов, Гомель","point":{"lat":52.4550258853377,"lon":30.960676431655884}},{"stopId":"10409996","name":"ул. Осипова","bearing":301,"stopType":1,"address":"проспект Космонавтов, Гомель","point":{"lat":52.456796357689896,"lon":30.95810580253601}},{"stopId":"10411020","name":"Молодежная","bearing":316,"stopType":1,"address":"проспект Космонавтов, Гомель","point":{"lat":52.458744049072266,"lon":30.953140258789062}},{"stopId":"10421260","name":"Молодежная","bearing":126,"stopType":1,"address":"проспект Космонавтов, Гомель","point":{"lat":52.457889556884766,"lon":30.95402717590332}},{"stopId":"10441740","name":"Пожарная Часть","bearing":39,"stopType":1,"address":"улица Ефремова, Гомель","point":{"lat":52.45685632597137,"lon":30.96173596382141}},{"stopId":"10442764","name":"Пожарная часть","bearing":222,"stopType":1,"address":"улица Ефремова, Гомель","point":{"lat":52.45747101946579,"lon":30.962175130844116}},{"stopId":"10443788","name":"ул. Фадеева","bearing":125,"stopType":1,"address":"улица Фадеева, Гомель","point":{"lat":52.45985309733102,"lon":30.96634030342102}},{"stopId":"10444812","name":"ул. Фадеева","bearing":39,"stopType":1,"address":"улица Ефремова, Гомель","point":{"lat":52.460724383333755,"lon":30.96656370162964}},{"stopId":"10449932","name":"ул. Фадеева","bearing":221,"stopType":1,"address":"улица Ефремова, Гомель","point":{"lat":52.45973216685407,"lon":30.964956998825073}},{"stopId":"1188876","name":"Завод самоходных комбайнов приб","bearing":67,"stopType":1,"address":"улица Ефремова, Гомель","point":{"lat":52.46231689911253,"lon":30.9687397480011}},{"stopId":"11163660","name":"ул.Народного ополччения","bearing":169,"stopType":1,"address":"улица Народного Ополчения, Гомель","point":{"lat":52.46400058142139,"lon":30.962656497955322}},{"stopId":"11164684","name":"ул.Фадеева","bearing":313,"stopType":1,"address":"улица Народного Ополчения, Гомель","point":{"lat":52.46075944859921,"lon":30.96502685546875}},{"stopId":"1101836","name":"ул. Бочкина","bearing":102,"stopType":1,"address":"улица Бочкина, Гомель","point":{"lat":52.426620889960866,"lon":30.9657963514328}},{"stopId":"1102860","name":"ул. 1-я Встречная","bearing":11,"stopType":1,"address":"Западная улица, Гомель","point":{"lat":52.427016842307914,"lon":30.96534562110901}},{"stopId":"1103884","name":"Онкологический диспансер","bearing":191,"stopType":1,"address":"Западная улица, Гомель","point":{"lat":52.429657963609785,"lon":30.965678453445435}},{"stopId":"1104908","name":"Онкологический диспансер","bearing":281,"stopType":1,"address":"улица Циолковского, Гомель","point":{"lat":52.43016396678101,"lon":30.96523904800415}},{"stopId":"1105932","name":"ул. Циолковского","bearing":100,"stopType":1,"address":"улица Циолковского, Гомель","point":{"lat":52.43073511530538,"lon":30.95843207836151}},{"stopId":"1106956","name":"ул. Циолковского","bearing":279,"stopType":1,"address":"улица Циолковского, Гомель","point":{"lat":52.43078995500674,"lon":30.959156155586243}},{"stopId":"1107980","name":"ул. Мильчанская","bearing":230,"stopType":1,"address":"1-я Мильчанская улица, Гомель","point":{"lat":52.428235405418356,"lon":30.954542994499207}},{"stopId":"1109004","name":"ул. Джураева","bearing":127,"stopType":1,"address":"улица Бочкина, Гомель","point":{"lat":52.428054194523796,"lon":30.951865315437317}},{"stopId":"1110028","name":"ул. Минская","bearing":216,"stopType":1,"address":"Минская улица, Гомель","point":{"lat":52.43134311270222,"lon":30.954015612602234}},{"stopId":"1111052","name":"ул. Минская","bearing":35,"stopType":1,"address":"Минская улица, Гомель","point":{"lat":52.432201624072015,"lon":30.955228090286255}},{"stopId":"4578316","name":"М-н Западный","bearing":303,"stopType":1,"address":"Минская улица, Гомель","point":{"lat":52.43603070886936,"lon":30.957970142364502}},{"stopId":"4583436","name":"м-н Западный","bearing":123,"stopType":1,"address":", Гомель","point":{"lat":52.43613863390538,"lon":30.95730495452881}},{"stopId":"11018252","name":"Гомельторгмаш","bearing":333,"stopType":1,"address":"8-я Иногородняя улица, Гомель","point":{"lat":52.43013162879455,"lon":30.94618511199951}},{"stopId":"11019276","name":"ул. Владимирова","bearing":39,"stopType":1,"address":"улица Владимирова, Гомель","point":{"lat":52.42970750524734,"lon":30.946851015090942}},{"stopId":"11020300","name":"ул. Владимирова","bearing":215,"stopType":1,"address":"улица Владимирова, Гомель","point":{"lat":52.43039783052945,"lon":30.947066068649292}},{"stopId":"11021324","name":"Сейсмотехника","bearing":6,"stopType":1,"address":"улица Владимирова, Гомель","point":{"lat":52.42669540901529,"lon":30.946819305419922}},{"stopId":"11022348","name":"Сейсмотехника","bearing":190,"stopType":1,"address":"улица Владимирова, Гомель","point":{"lat":52.42575196467511,"lon":30.946176290512085}},{"stopId":"11041804","name":"мкр.\"Западный\"","bearing":76,"stopType":1,"address":"Продольная улица, Гомель","point":{"lat":52.43706415549871,"lon":30.9576016664505}},{"stopId":"11042828","name":"мкр.\"Западный\"","bearing":253,"stopType":1,"address":"Продольная улица, Гомель","point":{"lat":52.4373823536047,"lon":30.958240628242493}},{"stopId":"11043852","name":"Протезно-ортопедический центр","bearing":215,"stopType":1,"address":"улица Владимирова, Гомель","point":{"lat":52.43257247081305,"lon":30.949330687522888}},{"stopId":"11044876","name":"Протезно-ортопедический центр","bearing":34,"stopType":1,"address":"улица Владимирова, Гомель","point":{"lat":52.432922843216204,"lon":30.950194716453552}},{"stopId":"11356172","name":"ул. Карповича ","bearing":123,"stopType":1,"address":"проспект Ленина, Гомель","point":{"lat":52.427421859636,"lon":31.002631709861756}},{"stopId":"10262540","name":"ул. Карповича","bearing":121,"stopType":1,"address":"проспект Ленина, Гомель","point":{"lat":52.42796341408191,"lon":31.00112020969391}},{"stopId":"10284044","name":"ул. Жарковского","bearing":155,"stopType":1,"address":"Советская улица, Гомель","point":{"lat":52.431092946878074,"lon":31.010662317276}},{"stopId":"10265612","name":"Цирк","bearing":337,"stopType":1,"address":"Советская улица, Гомель","point":{"lat":52.43226825012696,"lon":31.010177850723267}},{"stopId":"10358796","name":"ул. Карповича","bearing":300,"stopType":1,"address":"проспект Ленина, Гомель","point":{"lat":52.429092424395364,"lon":30.99867033958435}},{"stopId":"10463244","name":"БелГУТ","bearing":65,"stopType":1,"address":", Гомель","point":{"lat":52.433692932128906,"lon":31.002235412597656}},{"stopId":"10464268","name":"БелГУТ","bearing":241,"stopType":1,"address":"проспект Победы, Гомель","point":{"lat":52.433772136463936,"lon":31.00104522705078}},{"stopId":"11152396","name":"БелГУТ","bearing":154,"stopType":1,"address":"проспект Победы, Гомель","point":{"lat":52.433082283694226,"lon":31.00412881374359}},{"stopId":"11153420","name":"БелГУТ","bearing":336,"stopType":1,"address":"улица Кирова, Гомель","point":{"lat":52.431228137099914,"lon":31.005990624427795}},{"stopId":"11154444","name":"Медицинский колледж","bearing":155,"stopType":1,"address":"улица Кирова, Гомель","point":{"lat":52.42778384364083,"lon":31.007890224456787}},{"stopId":"11155468","name":"Медицинский колледж","bearing":337,"stopType":1,"address":"улица Кирова, Гомель","point":{"lat":52.42756319175418,"lon":31.008615136146545}},{"stopId":"10276876","name":"Горэлектротранспорт","bearing":156,"stopType":1,"address":"Советская улица, Гомель","point":{"lat":52.465550036032504,"lon":30.983866691589355}},{"stopId":"10273804","name":"Горэлектротранспорт","bearing":334,"stopType":1,"address":"Советская улица, Гомель","point":{"lat":52.46519002720745,"lon":30.98444962501526}},{"stopId":"10277900","name":"ул. Чонгарской дивизии","bearing":152,"stopType":1,"address":"Советская улица, Гомель","point":{"lat":52.46271833685864,"lon":30.986089944839478}},{"stopId":"10272780","name":"ул. Чонгарской дивизии","bearing":334,"stopType":1,"address":"Советская улица, Гомель","point":{"lat":52.46127431082833,"lon":30.98751723766327}},{"stopId":"10448908","name":"Завод самоходных комбайнов","bearing":216,"stopType":1,"address":"улица Ефремова, Гомель","point":{"lat":52.46301316002428,"lon":30.969112396240234}},{"stopId":"10450956","name":"ул. Чапаева","bearing":117,"stopType":1,"address":"улица Фадеева, Гомель","point":{"lat":52.45813313032532,"lon":30.970764875411987}},{"stopId":"10451980","name":"ул. Богданова","bearing":227,"stopType":1,"address":"улица Богданова, Гомель","point":{"lat":52.45546942832759,"lon":30.975029945373535}},{"stopId":"10460172","name":"Больница","bearing":317,"stopType":1,"address":"улица Фадеева, Гомель","point":{"lat":52.454890664448385,"lon":30.978368997573853}},{"stopId":"10461196","name":"ул.Чапаева","bearing":303,"stopType":1,"address":"улица Фадеева, Гомель","point":{"lat":52.45798381823731,"lon":30.971768379211426}},{"stopId":"10659852","name":"Завод самоходных комбайнов","bearing":37,"stopType":1,"address":"улица Ефремова, Гомель","point":{"lat":52.462678076760646,"lon":30.96899700164795}},{"stopId":"2691084","name":"Завод самоходных комбайнов отпр","bearing":329,"stopType":1,"address":"улица Ефремова, Гомель","point":{"lat":52.46301961003266,"lon":30.969565868377686}},{"stopId":"10286092","name":"Институт Гомельпроект","bearing":33,"stopType":1,"address":"Интернациональная улица, Гомель","point":{"lat":52.4180793762207,"lon":31.002017974853516}},{"stopId":"10334220","name":"ЗИП","bearing":215,"stopType":1,"address":"Интернациональная улица, Гомель","point":{"lat":52.419540942220024,"lon":31.003295063972473}},{"stopId":"10344460","name":"Предприятие \"СтанкоГомель\"","bearing":33,"stopType":1,"address":"Интернациональная улица, Гомель","point":{"lat":52.4233914869406,"lon":31.007365226745605}},{"stopId":"10332172","name":"Коминтерн","bearing":212,"stopType":1,"address":"Интернациональная улица, Гомель","point":{"lat":52.42476552542997,"lon":31.008421421051025}},{"stopId":"10263564","name":"ул. Крестьянская","bearing":126,"stopType":1,"address":"проспект Ленина, Гомель","point":{"lat":52.425815027412824,"lon":31.00691831111908}},{"stopId":"10357772","name":"ул. Крестьянская","bearing":303,"stopType":1,"address":"проспект Ленина, Гомель","point":{"lat":52.42601884844273,"lon":31.006913661956787}},{"stopId":"10359820","name":"ул. Барыкина","bearing":98,"stopType":1,"address":"улица Куйбышева, Гомель","point":{"lat":52.41647978560201,"lon":30.996337175369263}},{"stopId":"10361868","name":"ул. Барыкина","bearing":281,"stopType":1,"address":"улица Барыкина, Гомель","point":{"lat":52.41676045929278,"lon":30.996952056884766}},{"stopId":"10863628","name":"Центральный рынок","bearing":243,"stopType":1,"address":"Крестьянская улица, Гомель","point":{"lat":52.425130777584904,"lon":31.000941991759472}},{"stopId":"10987532","name":"Муз.пед.колледж","bearing":30,"stopType":1,"address":"Пролетарская улица, Гомель","point":{"lat":52.415956328571625,"lon":31.006701231002808}},{"stopId":"10988556","name":"Муз.пед.колледж","bearing":212,"stopType":1,"address":"Пролетарская улица, Гомель","point":{"lat":52.41681667274479,"lon":31.007070422172546}},{"stopId":"10989580","name":"ул.Гагарина","bearing":31,"stopType":1,"address":"Пролетарская улица, Гомель","point":{"lat":52.418361092079756,"lon":31.008877396583557}},{"stopId":"10990604","name":"ул.Гагарина","bearing":213,"stopType":1,"address":"Пролетарская улица, Гомель","point":{"lat":52.42033617119984,"lon":31.010566473007202}},{"stopId":"10472460","name":"АВ Гомель","bearing":0,"stopType":1,"address":"улица Шевченко, Гомель","point":{"lat":52.434329986572266,"lon":30.99252700805664}},{"stopId":"10643468","name":"Автовокзал","bearing":162,"stopType":1,"address":"улица Курчатова, Гомель","point":{"lat":52.43364568332605,"lon":30.992650508880615}},{"stopId":"10260492","name":"Вокзал","bearing":263,"stopType":1,"address":", Гомель","point":{"lat":52.43167908230181,"lon":30.99295401573181}},{"stopId":"10261516","name":"Вокзал ","bearing":125,"stopType":1,"address":"проспект Ленина, Гомель","point":{"lat":52.43047770009521,"lon":30.994452595710754}},{"stopId":"10465292","name":"магазин\"Медтехника\"","bearing":247,"stopType":1,"address":"проспект Победы, Гомель","point":{"lat":52.43211084735479,"lon":30.995133638381958}},{"stopId":"10644492","name":"Автовокзал","bearing":349,"stopType":1,"address":", Гомель","point":{"lat":52.43244171142578,"lon":30.993450164794922}},{"stopId":"4290572","name":"Вокзал","bearing":66,"stopType":1,"address":"проспект Победы, Гомель","point":{"lat":52.431974673075175,"lon":30.99593937397003}},{"stopId":"4641816","name":"Гомель-Пассажирский","bearing":0,"stopType":3,"address":"Привокзальная площадь, Гомель","point":{"lat":52.4306733,"lon":30.9906649}},{"stopId":"3297292","name":"Вокзал","bearing":260,"stopType":1,"address":"Привокзальная площадь, Гомель","point":{"lat":52.43168419596276,"lon":30.99331371574402}},{"stopId":"10865676","name":"Вокзал ","bearing":82,"stopType":1,"address":"Привокзальная площадь, Гомель","point":{"lat":52.43080606139667,"lon":30.992610454559326}},{"stopId":"10867724","name":"Вокзал ","bearing":65,"stopType":1,"address":"проспект Победы, Гомель","point":{"lat":52.432094370064334,"lon":30.99641191959381}},{"stopId":"4626444","name":"Вокзал","bearing":81,"stopType":1,"address":"Привокзальная площадь, Гомель","point":{"lat":52.43075227299614,"lon":30.992423222351075}},{"stopId":"4719628","name":"АВ Гомель","bearing":206,"stopType":1,"address":"улица Курчатова, Гомель","point":{"lat":52.434349060058594,"lon":30.993881225585938}},{"stopId":"4720652","name":"АВ Гомель","bearing":348,"stopType":1,"address":"улица Шевченко, Гомель","point":{"lat":52.43478775024414,"lon":30.992111206054688}},{"stopId":"518156","name":"Вокзал","bearing":261,"stopType":1,"address":", Гомель","point":{"lat":52.43160625925705,"lon":30.992432594299316}},{"stopId":"10420236","name":"Автоцентр \"Рено\"","bearing":139,"stopType":1,"address":"проспект Космонавтов, Гомель","point":{"lat":52.4621604761056,"lon":30.948130130767822}},{"stopId":"10412044","name":"Автоцентр \"Рено\"","bearing":329,"stopType":1,"address":"проспект Космонавтов, Гомель","point":{"lat":52.46320605606175,"lon":30.94737446308136}},{"stopId":"1115148","name":"Школа №55","bearing":69,"stopType":1,"address":"улица Маневича, Гомель","point":{"lat":52.468444609347614,"lon":30.964235067367554}},{"stopId":"1114124","name":"Школа №55","bearing":247,"stopType":1,"address":"улица Маневича, Гомель","point":{"lat":52.469194866658746,"lon":30.966435194015503}},{"stopId":"10251276","name":"АЗС","bearing":155,"stopType":1,"address":"Советская улица, Ерёминский сельский Совет","point":{"lat":52.48780982225824,"lon":30.966188311576843}},{"stopId":"10252300","name":"АЗС","bearing":334,"stopType":1,"address":"Советская улица, Ерёминский сельский Совет","point":{"lat":52.48804638260273,"lon":30.966360569000244}},{"stopId":"11160588","name":"ул.Гастелло","bearing":245,"stopType":1,"address":"улица Маневича, Гомель","point":{"lat":52.46777231883315,"lon":30.961025714874268}},{"stopId":"11161612","name":"ул.М.Богдановича","bearing":143,"stopType":1,"address":"улица Народного Ополчения, Гомель","point":{"lat":52.46635507820639,"lon":30.960327863693237}},{"stopId":"11162636","name":"ул.Народного ополчения","bearing":323,"stopType":1,"address":"улица Народного Ополчения, Гомель","point":{"lat":52.46617137562628,"lon":30.961078882217407}},{"stopId":"4999180","name":"Пролетарий (обр)","bearing":54,"stopType":1,"address":"Н4090, Красненский сельский Совет","point":{"lat":52.478010593457334,"lon":30.94791889190674}},{"stopId":"5000204","name":"Мичуринская м-н","bearing":174,"stopType":1,"address":"улица Мира, Красненский сельский Совет","point":{"lat":52.47543966988357,"lon":30.967435121536255}},{"stopId":"5001228","name":"Мичуринская м-н","bearing":349,"stopType":1,"address":"улица Мира, Красненский сельский Совет","point":{"lat":52.47656492942812,"lon":30.967607259750366}},{"stopId":"5002252","name":"Мичуринская к-ра","bearing":233,"stopType":1,"address":"улица Мира, Красненский сельский Совет","point":{"lat":52.47254587615412,"lon":30.965826511383057}},{"stopId":"5003276","name":"Мичуринская к-ра","bearing":50,"stopType":1,"address":"улица Мира, Красненский сельский Совет","point":{"lat":52.47255746246215,"lon":30.966668963432312}},{"stopId":"5211160","name":"Светоч","bearing":0,"stopType":3,"address":"Электронная улица, Гомель","point":{"lat":52.4911734,"lon":30.9671625}},{"stopId":"5214232","name":"Гомель-Чётный","bearing":0,"stopType":3,"address":"Хозяйственная улица, Гомель","point":{"lat":52.4395538,"lon":30.9593661}},{"stopId":"10258444","name":"Магазин \"1000 мелочей\"","bearing":84,"stopType":1,"address":", Гомель","point":{"lat":52.44592123668999,"lon":30.952540159225464}},{"stopId":"10331148","name":"Магазин \"1000 мелочей\"","bearing":269,"stopType":1,"address":", Гомель","point":{"lat":52.44612938592774,"lon":30.95115613937378}},{"stopId":"10257420","name":"ул. Бориса Царикова","bearing":86,"stopType":1,"address":", Гомель","point":{"lat":52.44644601116944,"lon":30.961735248565674}},{"stopId":"10246156","name":"ул. Бориса Царикова","bearing":271,"stopType":1,"address":"улица Бориса Царикова, Гомель","point":{"lat":52.44662305768421,"lon":30.960071325302124}},{"stopId":"11008012","name":"Рынок \"Заводской\"","bearing":83,"stopType":1,"address":", Гомель","point":{"lat":52.44695882562409,"lon":30.968098998069763}},{"stopId":"10245132","name":"Стадион \"Гомсельмаш\"","bearing":321,"stopType":1,"address":"улица Богданова, Гомель","point":{"lat":52.4506772830883,"lon":30.96609628200531}},{"stopId":"10453004","name":"проспект Космонавтов","bearing":230,"stopType":1,"address":"улица Богданова, Гомель","point":{"lat":52.45129122874251,"lon":30.967828273773193}},{"stopId":"10241036","name":"Стадион \"Гомсельмаш\"","bearing":143,"stopType":1,"address":"проспект Космонавтов, Гомель","point":{"lat":52.45241329855374,"lon":30.96351993083954}},{"stopId":"11039756","name":"Локомотивное депо","bearing":78,"stopType":1,"address":"улица Максима Горького, Гомель","point":{"lat":52.43993866079249,"lon":30.96845507621765}},{"stopId":"11040780","name":"Локомотивное депо","bearing":256,"stopType":1,"address":"Хозяйственная улица, Гомель","point":{"lat":52.43974248990656,"lon":30.96607279777527}},{"stopId":"11148300","name":"ул.50лет Гомсельмаш","bearing":37,"stopType":1,"address":"улица 50 лет Заводу Гомсельмаш, Гомель","point":{"lat":52.448561369911836,"lon":30.955885887145996}},{"stopId":"11149324","name":"ул.50лет Гомсельмаш","bearing":214,"stopType":1,"address":"улица 50 лет Заводу Гомсельмаш, Гомель","point":{"lat":52.44832508303654,"lon":30.955182433128357}},{"stopId":"11150348","name":"ун.Северный","bearing":261,"stopType":1,"address":"улица 50 лет Заводу Гомсельмаш, Гомель","point":{"lat":52.44997497172271,"lon":30.961206316947937}},{"stopId":"11151372","name":"ун.Северный","bearing":85,"stopType":1,"address":"улица 50 лет Заводу Гомсельмаш, Гомель","point":{"lat":52.44999095193422,"lon":30.964725494384766}},{"stopId":"11366412","name":"д. Зеленый сад","bearing":98,"stopType":1,"address":", Азделинский сельский Совет","point":{"lat":52.5635675502486,"lon":30.740601420402527}},{"stopId":"11367436","name":"д. Зеленый сад","bearing":278,"stopType":1,"address":", Азделинский сельский Совет","point":{"lat":52.563613202942214,"lon":30.741899609565735}},{"stopId":"11364364","name":"д. Азделино","bearing":255,"stopType":1,"address":"Центральная улица, Азделинский сельский Совет","point":{"lat":52.53912498472881,"lon":30.74813835411072}},{"stopId":"11365388","name":"д. Азделино","bearing":75,"stopType":1,"address":"Центральная улица, Азделинский сельский Совет","point":{"lat":52.53908884706265,"lon":30.748652458190918}},{"stopId":"11376652","name":"Ст. Белица","bearing":12,"stopType":1,"address":"улица Октября, Урицкий сельский Совет","point":{"lat":52.50832067672366,"lon":30.765519068527222}},{"stopId":"11377676","name":"Ст. Белица","bearing":190,"stopType":1,"address":"улица Октября, Урицкий сельский Совет","point":{"lat":52.5080276187709,"lon":30.765251398086548}},{"stopId":"5220364","name":"Пов. Галеевка","bearing":287,"stopType":1,"address":"М5, Урицкий сельский Совет","point":{"lat":52.48660260655165,"lon":30.730546951293945}},{"stopId":"5221388","name":"Пов. Галеевка","bearing":99,"stopType":1,"address":"М5, Урицкий сельский Совет","point":{"lat":52.48564058033324,"lon":30.733680725097656}},{"stopId":"5231628","name":"Алексеевка","bearing":328,"stopType":1,"address":"Алексеевка, Урицкий сельский Совет","point":{"lat":52.45617245343511,"lon":30.71990656852722}},{"stopId":"5232652","name":"Алексеевка","bearing":141,"stopType":1,"address":"Алексеевка, Урицкий сельский Совет","point":{"lat":52.45576595793928,"lon":30.719907522201538}},{"stopId":"5330956","name":"Азделино","bearing":342,"stopType":1,"address":"Новая улица, Азделинский сельский Совет","point":{"lat":52.54212809690804,"lon":30.743535683441163}},{"stopId":"5331980","name":"Азделино","bearing":165,"stopType":1,"address":"Новая улица, Азделинский сельский Совет","point":{"lat":52.54102391413334,"lon":30.743879795074463}},{"stopId":"574476","name":"Храм Рождества Пр. Богородицы","bearing":324,"stopType":1,"address":"улица Ятченко, Урицкий сельский Совет","point":{"lat":52.467315673828125,"lon":30.8052978515625}},{"stopId":"575500","name":"Храм Рождества Пр. Богородицы","bearing":142,"stopType":1,"address":"улица Ятченко, Урицкий сельский Совет","point":{"lat":52.46799087524414,"lon":30.804058074951172}},{"stopId":"11363340","name":"д. Роги","bearing":240,"stopType":1,"address":"Комсомольская улица, Азделинский сельский Совет","point":{"lat":52.544031877704484,"lon":30.786150620269776}},{"stopId":"11368460","name":"д. Роги","bearing":56,"stopType":1,"address":"Садовая улица, Азделинский сельский Совет","point":{"lat":52.54405425197594,"lon":30.786854028701782}},{"stopId":"5186572","name":"Урицкое","bearing":230,"stopType":1,"address":"микрорайон Энергетиков, Урицкий сельский Совет","point":{"lat":52.46200955093535,"lon":30.809153244781495}},{"stopId":"5187596","name":"Урицкое","bearing":48,"stopType":1,"address":"Н4110, Приборский сельский Совет","point":{"lat":52.45839480967111,"lon":30.802040576934814}},{"stopId":"5218316","name":"пов. Ст. Белица","bearing":263,"stopType":1,"address":"М5, Урицкий сельский Совет","point":{"lat":52.48627144432673,"lon":30.780146837234497}},{"stopId":"5219340","name":"Пов. Ст. Белица","bearing":83,"stopType":1,"address":"М5, Урицкий сельский Совет","point":{"lat":52.485748086904074,"lon":30.77828049659729}},{"stopId":"10630156","name":"микрорайон \"Энергетиков\"","bearing":141,"stopType":1,"address":", Гомель","point":{"lat":52.46448526036724,"lon":30.808598518371582}},{"stopId":"10631180","name":"микрорайон \"Энергетик\"","bearing":324,"stopType":1,"address":"улица Ятченко, Урицкий сельский Совет","point":{"lat":52.46525024933775,"lon":30.807873606681824}},{"stopId":"996364","name":"Урицкое ","bearing":0,"stopType":1,"address":"улица Ятченко, Урицкий сельский Совет","point":{"lat":52.4723014831543,"lon":30.79287338256836}},{"stopId":"4597772","name":"Урицкое","bearing":194,"stopType":1,"address":"улица Ятченко, Урицкий сельский Совет","point":{"lat":52.4722046140491,"lon":30.79367733001709}},{"stopId":"6079500","name":"1-й участок (прям.)","bearing":264,"stopType":1,"address":"Н4097, Азделинский сельский Совет","point":{"lat":52.54685896893744,"lon":30.81142795085907}},{"stopId":"6080524","name":"пос. Роги (прям.)","bearing":265,"stopType":1,"address":"улица Калинина, Азделинский сельский Совет","point":{"lat":52.5456114538304,"lon":30.79343605041504}},{"stopId":"6081548","name":"пос. Роги (обр.)","bearing":84,"stopType":1,"address":"улица Калинина, Азделинский сельский Совет","point":{"lat":52.54540835581804,"lon":30.792900562286377}},{"stopId":"6082572","name":"1-й участок","bearing":87,"stopType":1,"address":"Н4097, Азделинский сельский Совет","point":{"lat":52.546557953052705,"lon":30.809648990631104}},{"stopId":"5188620","name":"д. Рандовка","bearing":224,"stopType":1,"address":"Н4110, Приборский сельский Совет","point":{"lat":52.43276426848072,"lon":30.78229856491089}},{"stopId":"5189644","name":"д. Рандовка","bearing":39,"stopType":1,"address":"Н4110, Приборский сельский Совет","point":{"lat":52.43181042857043,"lon":30.78167700767517}},{"stopId":"10381324","name":"Химзавод","bearing":0,"stopType":1,"address":"Химзаводская улица, Гомель","point":{"lat":52.434818267822266,"lon":30.86800193786621}},{"stopId":"10390540","name":"Предприятие \"Спецпромавтоматика\"","bearing":291,"stopType":1,"address":"Химзаводская улица, Гомель","point":{"lat":52.43194438612792,"lon":30.87954020500183}},{"stopId":"10391564","name":"Транспортный цех","bearing":112,"stopType":1,"address":"Химзаводская улица, Гомель","point":{"lat":52.43174160159307,"lon":30.879690408706665}},{"stopId":"10392588","name":"Первое гомельское монтажное управление","bearing":293,"stopType":1,"address":"Химзаводская улица, Гомель","point":{"lat":52.43308251979399,"lon":30.874240159988403}},{"stopId":"10393612","name":"Первое гомельское монтажное управление","bearing":110,"stopType":1,"address":"Химзаводская улица, Гомель","point":{"lat":52.43286011939989,"lon":30.874519109725952}},{"stopId":"10632204","name":"пов. ТЭЦ-2","bearing":315,"stopType":1,"address":"Центролит — Урицкое — Уваровичи, Гомель","point":{"lat":52.45533328381754,"lon":30.821285128593445}},{"stopId":"10633228","name":"пов. ТЭЦ-2","bearing":145,"stopType":1,"address":"Центролит — Урицкое — Уваровичи, Гомель","point":{"lat":52.45470876770247,"lon":30.8216814994812}},{"stopId":"10634252","name":"Объездная дорога","bearing":139,"stopType":1,"address":", Гомель","point":{"lat":52.45044230431058,"lon":30.828171730041504}},{"stopId":"10635276","name":"Объездная дорога","bearing":315,"stopType":1,"address":", Гомель","point":{"lat":52.45032010994563,"lon":30.828917622566223}},{"stopId":"10636300","name":"Автодром","bearing":298,"stopType":1,"address":"Центролит — Урицкое — Уваровичи, Гомель","point":{"lat":52.44694325725838,"lon":30.837403535842896}},{"stopId":"10637324","name":"Автодром","bearing":123,"stopType":1,"address":"Центролит — Урицкое — Уваровичи, Гомель","point":{"lat":52.446348483283714,"lon":30.838578581809998}},{"stopId":"10638348","name":"Залипье","bearing":297,"stopType":1,"address":"Центролит — Урицкое — Уваровичи, Гомель","point":{"lat":52.44407706884953,"lon":30.84622812271118}},{"stopId":"10639372","name":"Залипье","bearing":119,"stopType":1,"address":"Центролит — Урицкое — Уваровичи, Гомель","point":{"lat":52.442624717347584,"lon":30.850123167037964}},{"stopId":"1012748","name":"Гомельэнергострой","bearing":0,"stopType":1,"address":"проезд Энергостроителей, Гомель","point":{"lat":52.44804000854492,"lon":30.821514129638672}},{"stopId":"5954572","name":"Агрокомбинат \"Восток\" (прям)","bearing":185,"stopType":1,"address":"Н4110, Приборский сельский Совет","point":{"lat":52.449882505128365,"lon":30.790146470069885}},{"stopId":"5955596","name":"Агрокомбинат \"Восток\" (обр)","bearing":14,"stopType":1,"address":"Н4110, Приборский сельский Совет","point":{"lat":52.45011687754044,"lon":30.79050040245056}},{"stopId":"502796","name":"Химзавод приб","bearing":291,"stopType":1,"address":"Химзаводская улица, Гомель","point":{"lat":52.4343325608534,"lon":30.86904263496399}},{"stopId":"503820","name":"Химзавод отпр","bearing":114,"stopType":1,"address":"Химзаводская улица, Гомель","point":{"lat":52.434435004910625,"lon":30.867947697639465}},{"stopId":"5176332","name":"Сосновка (обр)","bearing":7,"stopType":1,"address":"М8, Бобовичский сельский Совет","point":{"lat":52.36996278836048,"lon":30.82635474205017}},{"stopId":"5177356","name":"Сосновка (пр)","bearing":183,"stopType":1,"address":"М8, Бобовичский сельский Совет","point":{"lat":52.36660345163479,"lon":30.82614016532898}},{"stopId":"5333004","name":"Сосновка","bearing":259,"stopType":1,"address":"улица 8 Марта, Бобовичский сельский Совет","point":{"lat":52.37103630351122,"lon":30.842391178894044}},{"stopId":"5334028","name":"Сосновка (обр)","bearing":70,"stopType":1,"address":"улица 8 Марта, Бобовичский сельский Совет","point":{"lat":52.36835737057355,"lon":30.833154439926147}},{"stopId":"826380","name":"Медгородок","bearing":0,"stopType":1,"address":"Медицинская улица, Гомель","point":{"lat":52.394283294677734,"lon":30.89933967590332}},{"stopId":"1032204","name":"Уза","bearing":0,"stopType":1,"address":"Комсомольская улица, Бобовичский сельский Совет","point":{"lat":52.38521957397461,"lon":30.886005401611328}},{"stopId":"1036300","name":"пов. кладбище \"рандовское\"","bearing":250,"stopType":1,"address":", Гомель","point":{"lat":52.39196290765147,"lon":30.853835105895996}},{"stopId":"1037324","name":"пов. кладбище \"Рандовское\"","bearing":66,"stopType":1,"address":", Бобовичский сельский Совет","point":{"lat":52.39314651489258,"lon":30.860132217407227}},{"stopId":"1038348","name":"Кладбище \"Рондовское\"","bearing":0,"stopType":1,"address":", Бобовичский сельский Совет","point":{"lat":52.393978118896484,"lon":30.85410499572754}},{"stopId":"1039372","name":"река Уза","bearing":250,"stopType":1,"address":", Гомель","point":{"lat":52.389157971023636,"lon":30.84183645248413}},{"stopId":"1040396","name":"река Уза","bearing":71,"stopType":1,"address":", Бобовичский сельский Совет","point":{"lat":52.388981320994965,"lon":30.842576265335083}},{"stopId":"10706956","name":"Медгородок","bearing":251,"stopType":1,"address":"Медицинская улица, Гомель","point":{"lat":52.39566073819716,"lon":30.902413487434387}},{"stopId":"11035660","name":"Медгородок","bearing":58,"stopType":1,"address":"Медицинская улица, Гомель","point":{"lat":52.395071597397525,"lon":30.900144934654236}},{"stopId":"5952524","name":"Радуга (обр)","bearing":351,"stopType":1,"address":"М8, Бобовичский сельский Совет","point":{"lat":52.36119918942446,"lon":30.82696311264038}},{"stopId":"5953548","name":"Радуга (прям)","bearing":171,"stopType":1,"address":"М8, Бобовичский сельский Совет","point":{"lat":52.35909685245051,"lon":30.827317476272583}},{"stopId":"4911116","name":"Уза","bearing":203,"stopType":1,"address":"Комсомольская улица, Бобовичский сельский Совет","point":{"lat":52.38508799576502,"lon":30.885837197303772}},{"stopId":"4912140","name":"Уза","bearing":23,"stopType":1,"address":"Комсомольская улица, Бобовичский сельский Совет","point":{"lat":52.38580902697676,"lon":30.886459827423096}},{"stopId":"4913164","name":"пов.Сосновка","bearing":242,"stopType":1,"address":"Больница Химзавода — Уза, Бобовичский сельский Совет","point":{"lat":52.36997985839844,"lon":30.867919921875}},{"stopId":"4914188","name":"пов.Сосновка","bearing":73,"stopType":1,"address":"Сосновка - Абакумы, Бобовичский сельский Совет","point":{"lat":52.368675231933594,"lon":30.869647979736328}},{"stopId":"4915212","name":"СТ \"Сосновка 2\"","bearing":135,"stopType":1,"address":"Сосновка - Абакумы, Бобовичский сельский Совет","point":{"lat":52.362949988178016,"lon":30.88157868385315}},{"stopId":"4916236","name":"СТ \"Сосновка 2\"","bearing":308,"stopType":1,"address":"Сосновка - Абакумы, Бобовичский сельский Совет","point":{"lat":52.363859341872356,"lon":30.88030195236206}},{"stopId":"5217304","name":"Центролит","bearing":0,"stopType":3,"address":"улица Барыкина, Гомель","point":{"lat":52.4302146,"lon":30.9036784}},{"stopId":"10387468","name":"Дорожник","bearing":292,"stopType":1,"address":"Химзаводская улица, Гомель","point":{"lat":52.43076692629571,"lon":30.884872436523438}},{"stopId":"10389516","name":"Дорожник","bearing":107,"stopType":1,"address":"Химзаводская улица, Гомель","point":{"lat":52.43030247360886,"lon":30.886245727539062}},{"stopId":"10469388","name":"Радиозавод","bearing":335,"stopType":1,"address":"Объездная улица, Гомель","point":{"lat":52.420204744509554,"lon":30.892753839492798}},{"stopId":"10471436","name":"ДСК","bearing":331,"stopType":1,"address":"Объездная улица, Гомель","point":{"lat":52.41196770599818,"lon":30.89970111846924}},{"stopId":"10640396","name":"Радиозавод","bearing":151,"stopType":1,"address":"Объездная улица, Гомель","point":{"lat":52.41983389160273,"lon":30.89272105693817}},{"stopId":"10641420","name":"ДСК","bearing":155,"stopType":1,"address":"Объездная улица, Гомель","point":{"lat":52.411533248509485,"lon":30.89969105822754}},{"stopId":"1097740","name":"ул. Промышленная","bearing":270,"stopType":1,"address":"Весенняя улица, Гомель","point":{"lat":52.44057573803356,"lon":30.903483152389526}},{"stopId":"1098764","name":"ул. Промышленная","bearing":91,"stopType":1,"address":"Весенняя улица, Гомель","point":{"lat":52.44039752236189,"lon":30.902668237686157}},{"stopId":"1099788","name":"Мильча","bearing":0,"stopType":1,"address":"Весенняя улица, Красненский сельский Совет","point":{"lat":52.44008255004883,"lon":30.895212173461914}},{"stopId":"248844","name":"Радиозавод","bearing":74,"stopType":1,"address":"улица Барыкина, Гомель","point":{"lat":52.42656897674238,"lon":30.890595839309693}},{"stopId":"249868","name":"Радиозавод","bearing":254,"stopType":1,"address":"улица Барыкина, Гомель","point":{"lat":52.42686327521095,"lon":30.89129400253296}},{"stopId":"10384396","name":"ул. Борисенко","bearing":286,"stopType":1,"address":"улица Барыкина, Гомель","point":{"lat":52.42582148830549,"lon":30.923784255981445}},{"stopId":"10386444","name":"Энергосбыт","bearing":274,"stopType":1,"address":"улица Барыкина, Гомель","point":{"lat":52.42743682861328,"lon":30.905546188354492}},{"stopId":"10394636","name":"Электросети","bearing":93,"stopType":1,"address":"улица Барыкина, Гомель","point":{"lat":52.427154541015625,"lon":30.90715789794922}},{"stopId":"10395660","name":"Пограничная группа","bearing":96,"stopType":1,"address":"улица Барыкина, Гомель","point":{"lat":52.42565155029297,"lon":30.923486709594727}},{"stopId":"10401804","name":"ул. Войсковая","bearing":283,"stopType":1,"address":"улица Барыкина, Гомель","point":{"lat":52.424905564246444,"lon":30.9305983045578}},{"stopId":"1093644","name":"ул. Оршанская","bearing":268,"stopType":1,"address":"Весенняя улица, Гомель","point":{"lat":52.44082296482958,"lon":30.912736892700195}},{"stopId":"1094668","name":"ул. Оршанская","bearing":90,"stopType":1,"address":"Весенняя улица, Гомель","point":{"lat":52.44072231878701,"lon":30.914206981658936}},{"stopId":"1095692","name":"ул. Весенняя","bearing":271,"stopType":1,"address":"Весенняя улица, Гомель","point":{"lat":52.44068254259979,"lon":30.907394886016846}},{"stopId":"1096716","name":"ул. Весенняя","bearing":92,"stopType":1,"address":"Весенняя улица, Гомель","point":{"lat":52.44057354546939,"lon":30.908032774925232}},{"stopId":"1137676","name":"завод \"Центролит\"","bearing":187,"stopType":1,"address":"улица Борисенко, Гомель","point":{"lat":52.423805684267215,"lon":30.92209017276764}},{"stopId":"256012","name":"Центролит","bearing":98,"stopType":1,"address":"улица Барыкина, Гомель","point":{"lat":52.426395781541686,"lon":30.914745569229126}},{"stopId":"257036","name":"Центролит","bearing":282,"stopType":1,"address":"улица Барыкина, Гомель","point":{"lat":52.42685055889906,"lon":30.91304612159729}},{"stopId":"11056140","name":"ул.Чернышевского","bearing":139,"stopType":1,"address":"улица Чернышевского, Гомель","point":{"lat":52.44020767842413,"lon":30.93256711955183}},{"stopId":"11145228","name":"ул.Чернышевского","bearing":45,"stopType":1,"address":"1-я Гомсельмашевская улица, Гомель","point":{"lat":52.44026892102818,"lon":30.93324840068817}},{"stopId":"10247180","name":"пов. на ст.Костюковка","bearing":149,"stopType":1,"address":"Советская улица, Ерёминский сельский Совет","point":{"lat":52.52201741146603,"lon":30.9305899143219}},{"stopId":"10248204","name":"Магазин","bearing":149,"stopType":1,"address":"Советская улица, Ерёминский сельский Совет","point":{"lat":52.51722996192746,"lon":30.935409784317017}},{"stopId":"10255372","name":"Магазин","bearing":332,"stopType":1,"address":"Советская улица, Ерёминский сельский Совет","point":{"lat":52.518475501086776,"lon":30.934749603271484}},{"stopId":"10256396","name":"пов. на ст.Костюковка","bearing":331,"stopType":1,"address":"Советская улица, Гомель","point":{"lat":52.52272501275158,"lon":30.93043339252472}},{"stopId":"4120588","name":"Костюковка (приб)","bearing":327,"stopType":1,"address":"улица Михаила Ломоносова, Гомель","point":{"lat":52.53453257548186,"lon":30.918248057365417}},{"stopId":"997388","name":"Гомельстекло","bearing":327,"stopType":1,"address":"улица Михаила Ломоносова, Гомель","point":{"lat":52.5322105866564,"lon":30.92065803794861}},{"stopId":"998412","name":"Горка","bearing":335,"stopType":1,"address":"улица Михаила Ломоносова, Гомель","point":{"lat":52.54304793154578,"lon":30.91008949279785}},{"stopId":"999436","name":"Горка","bearing":153,"stopType":1,"address":"улица Михаила Ломоносова, Гомель","point":{"lat":52.54180585130382,"lon":30.910813450813293}},{"stopId":"1000460","name":"Костюковский лицей","bearing":336,"stopType":1,"address":"улица Михаила Ломоносова, Гомель","point":{"lat":52.548624009627886,"lon":30.905025839805603}},{"stopId":"1001484","name":"Костюковский лицей","bearing":152,"stopType":1,"address":"улица Михаила Ломоносова, Гомель","point":{"lat":52.548071450203004,"lon":30.90512180328369}},{"stopId":"10249228","name":"Ерёмино","bearing":145,"stopType":1,"address":"Советская улица, Ерёминский сельский Совет","point":{"lat":52.5127739890871,"lon":30.939980030059814}},{"stopId":"10254348","name":"Ерёмино","bearing":327,"stopType":1,"address":"Советская улица, Ерёминский сельский Совет","point":{"lat":52.513671946530536,"lon":30.939520120620728}},{"stopId":"1172492","name":"Церковь","bearing":0,"stopType":1,"address":"Вокзальная улица, Ерёминский сельский Совет","point":{"lat":52.509637874352435,"lon":30.94506613998413}},{"stopId":"1173516","name":"Церковь","bearing":180,"stopType":1,"address":"Вокзальная улица, Ерёминский сельский Совет","point":{"lat":52.509888042242714,"lon":30.944840908050537}},{"stopId":"11051020","name":"Костюковка","bearing":329,"stopType":1,"address":"улица Михаила Ломоносова, Гомель","point":{"lat":52.53627683000347,"lon":30.916622519493103}},{"stopId":"11054092","name":"м-н Костюковка","bearing":151,"stopType":1,"address":"улица Михаила Ломоносова, Гомель","point":{"lat":52.5340963308573,"lon":30.918081045150757}},{"stopId":"11157516","name":"Ст. Костюковка","bearing":0,"stopType":1,"address":"улица Кирова, Ерёминский сельский Совет","point":{"lat":52.54654312133789,"lon":30.93889808654785}},{"stopId":"4995084","name":"Магазин \"Радуга\" (пр)","bearing":310,"stopType":1,"address":"улица Ленина, Красненский сельский Совет","point":{"lat":52.47335040426837,"lon":30.918776273727417}},{"stopId":"4996108","name":"Магазин \"Радуга\" (обр)","bearing":126,"stopType":1,"address":"улица Ленина, Красненский сельский Совет","point":{"lat":52.4730095663607,"lon":30.91897451877594}},{"stopId":"4997132","name":"Красное конечная","bearing":315,"stopType":1,"address":"улица Ленина, Красненский сельский Совет","point":{"lat":52.47978092205467,"lon":30.90489888191223}},{"stopId":"6272012","name":"Красное отпр.","bearing":135,"stopType":1,"address":"улица Ленина, Красненский сельский Совет","point":{"lat":52.47973441792824,"lon":30.904521868515015}},{"stopId":"5209112","name":"Костюковка","bearing":0,"stopType":3,"address":"Станционная улица, Ерёминский сельский Совет","point":{"lat":52.5240723,"lon":30.9408369}},{"stopId":"10417164","name":"ЗЛиН","bearing":63,"stopType":1,"address":"Могилёвская улица, Гомель","point":{"lat":52.456424713134766,"lon":30.919763565063477}},{"stopId":"1086476","name":"ЗЛиН","bearing":243,"stopType":1,"address":"Могилёвская улица, Гомель","point":{"lat":52.45601495912254,"lon":30.91793291358948}},{"stopId":"1087500","name":"Корпус литья","bearing":0,"stopType":1,"address":"Могилёвская улица, Гомель","point":{"lat":52.45353698730469,"lon":30.91154670715332}},{"stopId":"1088524","name":"Корпус литья","bearing":246,"stopType":1,"address":"Могилёвская улица, Гомель","point":{"lat":52.4538279828102,"lon":30.910950660705566}},{"stopId":"1089548","name":"Строительное предприятие","bearing":336,"stopType":1,"address":"Могилёвская улица, Гомель","point":{"lat":52.447296882429654,"lon":30.913203239440918}},{"stopId":"1090572","name":"Строительное предприятие","bearing":155,"stopType":1,"address":"Могилёвская улица, Гомель","point":{"lat":52.44686291934049,"lon":30.913268327713013}},{"stopId":"1091596","name":"ул. Проселочная","bearing":143,"stopType":1,"address":"Могилёвская улица, Гомель","point":{"lat":52.44250588674329,"lon":30.917012453079224}},{"stopId":"1092620","name":"ул. Проселочная","bearing":334,"stopType":1,"address":"Могилёвская улица, Гомель","point":{"lat":52.4434024766954,"lon":30.916770577430725}},{"stopId":"1159180","name":"ул. Иванова","bearing":313,"stopType":1,"address":"улица Иванова, Гомель","point":{"lat":52.45353683239301,"lon":30.929524064064026}},{"stopId":"1160204","name":"ул. Иванова","bearing":131,"stopType":1,"address":"улица Иванова, Гомель","point":{"lat":52.453359887837216,"lon":30.929308891296387}},{"stopId":"10866700","name":"ЗЛиН","bearing":245,"stopType":1,"address":"Могилёвская улица, Гомель","point":{"lat":52.45657237428524,"lon":30.919779539108276}},{"stopId":"4575244","name":"Корпус литья ","bearing":68,"stopType":1,"address":"Могилёвская улица, Гомель","point":{"lat":52.454283445285206,"lon":30.91278862953186}},{"stopId":"5213208","name":"Мильча","bearing":0,"stopType":3,"address":"Широкая улица, Гомель","point":{"lat":52.4421528,"lon":30.9282659}},{"stopId":"10383372","name":"ул. Сосновая","bearing":285,"stopType":1,"address":"улица Барыкина, Гомель","point":{"lat":52.42303189520941,"lon":30.94420313835144}},{"stopId":"10396684","name":"ул. Сосновая","bearing":106,"stopType":1,"address":"улица Барыкина, Гомель","point":{"lat":52.42289359133573,"lon":30.943492889404297}},{"stopId":"10402828","name":"ул. Войсковая","bearing":102,"stopType":1,"address":"улица Барыкина, Гомель","point":{"lat":52.424362542922324,"lon":30.93335025100708}},{"stopId":"11014156","name":"Спутник мира","bearing":154,"stopType":1,"address":"8-я Иногородняя улица, Гомель","point":{"lat":52.433388856081876,"lon":30.942826628684998}},{"stopId":"11016204","name":"Спутник мира","bearing":331,"stopType":1,"address":"8-я Иногородняя улица, Гомель","point":{"lat":52.43318609000716,"lon":30.943513870239258}},{"stopId":"11017228","name":"Гомельторгмаш","bearing":154,"stopType":1,"address":"8-я Иногородняя улица, Гомель","point":{"lat":52.43038140970605,"lon":30.9455087184906}},{"stopId":"11024396","name":"ул. Сосновая","bearing":12,"stopType":1,"address":"Сосновая улица, Гомель","point":{"lat":52.42092935073015,"lon":30.944952487945557}},{"stopId":"11026444","name":"ул. Сосновая","bearing":188,"stopType":1,"address":"Сосновая улица, Гомель","point":{"lat":52.420310641875425,"lon":30.944470405578613}},{"stopId":"11029516","name":"Стрелковый тир","bearing":357,"stopType":1,"address":"Сосновая улица, Гомель","point":{"lat":52.416075198292866,"lon":30.944465279579163}},{"stopId":"11030540","name":"Стрелковый тир","bearing":181,"stopType":1,"address":"Сосновая улица, Гомель","point":{"lat":52.41624670812348,"lon":30.94414258003235}},{"stopId":"10413068","name":"ТЦ \"Ома\"","bearing":252,"stopType":1,"address":", Гомель","point":{"lat":52.4633897555945,"lon":30.941885948181152}},{"stopId":"10419212","name":"ТЦ \"Ома\"","bearing":63,"stopType":1,"address":", Гомель","point":{"lat":52.46343539642074,"lon":30.942830562591553}},{"stopId":"1161228","name":"предприятие Химторг","bearing":284,"stopType":1,"address":"Нижнебрилевская улица, Гомель","point":{"lat":52.450770043605885,"lon":30.934818625450134}},{"stopId":"1162252","name":"предприятие Химторг","bearing":102,"stopType":1,"address":"Нижнебрилевская улица, Гомель","point":{"lat":52.450628023879304,"lon":30.934609532356262}},{"stopId":"1163276","name":"ул. Нижнебрилевская-1","bearing":5,"stopType":1,"address":"Нижнебрилевская улица, Гомель","point":{"lat":52.453966401049875,"lon":30.939780592918396}},{"stopId":"1164300","name":"ул. Нижнебрилевская-1","bearing":186,"stopType":1,"address":"Нижнебрилевская улица, Гомель","point":{"lat":52.45397785562185,"lon":30.93946373462677}},{"stopId":"1165324","name":"ул. Кунцевича","bearing":34,"stopType":1,"address":"Нижнебрилевская улица, Гомель","point":{"lat":52.45167306508834,"lon":30.93815517425537}},{"stopId":"1166348","name":"ул. Кунцевича","bearing":214,"stopType":1,"address":"Нижнебрилевская улица, Гомель","point":{"lat":52.45150486355422,"lon":30.937699913978577}},{"stopId":"1167372","name":"ул. Нижнебрилевская","bearing":0,"stopType":1,"address":"Нижнебрилевская улица, Гомель","point":{"lat":52.45798873901367,"lon":30.940345764160156}},{"stopId":"909324","name":"Колледж художественных  промыслов","bearing":0,"stopType":1,"address":", Гомель","point":{"lat":52.441497802734375,"lon":30.94295310974121}},{"stopId":"11009036","name":"З-д станочных узлов","bearing":86,"stopType":1,"address":"8-я Иногородняя улица, Гомель","point":{"lat":52.44562639755374,"lon":30.94460690021515}},{"stopId":"11010060","name":"З-д станочных узлов","bearing":178,"stopType":1,"address":"8-я Иногородняя улица, Гомель","point":{"lat":52.44485692735764,"lon":30.94381821155548}},{"stopId":"11011084","name":"Колледж художественных промыслов","bearing":6,"stopType":1,"address":", Гомель","point":{"lat":52.44084857446316,"lon":30.943663001060486}},{"stopId":"11012108","name":"Колледж художественных промыслов","bearing":198,"stopType":1,"address":", Гомель","point":{"lat":52.44121009776857,"lon":30.943293690681458}},{"stopId":"11146252","name":"ул.Полукруглая","bearing":177,"stopType":1,"address":"Приборская улица, Гомель","point":{"lat":52.44315410913898,"lon":30.93784511089325}},{"stopId":"11147276","name":"ул.Полукруглая","bearing":86,"stopType":1,"address":", Гомель","point":{"lat":52.443990454779936,"lon":30.939051508903503}},{"stopId":"4998156","name":"Пролетарий (пр)","bearing":238,"stopType":1,"address":"Н4090, Красненский сельский Совет","point":{"lat":52.4775077157113,"lon":30.94517147541046}},{"stopId":"5212184","name":"Гомель-Северный","bearing":0,"stopType":3,"address":"Линейный переулок, Гомель","point":{"lat":52.4563244,"lon":30.9451003}},{"stopId":"5218328","name":"Рандовский","bearing":0,"stopType":3,"address":"М8, Приборский сельский Совет","point":{"lat":52.4152918,"lon":30.8221316}},{"stopId":"5219352","name":"Сады","bearing":0,"stopType":3,"address":"Заречная улица, Приборский сельский Совет","point":{"lat":52.4050346,"lon":30.7715424}},{"stopId":"5220376","name":"Прибор","bearing":0,"stopType":3,"address":"Шоссейная улица, Приборский сельский Совет","point":{"lat":52.3999122,"lon":30.7578841}},{"stopId":"5190668","name":"Прибор (магазин)","bearing":218,"stopType":1,"address":"улица Мира, Приборский сельский Совет","point":{"lat":52.41423001219752,"lon":30.763556718826294}},{"stopId":"5191692","name":"Прибор (магазин)","bearing":24,"stopType":1,"address":"улица Мира, Приборский сельский Совет","point":{"lat":52.41474573496503,"lon":30.764480352401733}},{"stopId":"5192716","name":"Прибор (западный)","bearing":71,"stopType":1,"address":"Волковичская улица, Приборский сельский Совет","point":{"lat":52.405444193905126,"lon":30.753730535507202}},{"stopId":"5300236","name":"Новая Буда ","bearing":26,"stopType":1,"address":"Н4122, Приборский сельский Совет","point":{"lat":52.39672241446173,"lon":30.78758828430176}},{"stopId":"5301260","name":"СТ \"Устинка\"","bearing":311,"stopType":1,"address":"Н4122, Приборский сельский Совет","point":{"lat":52.39879289422593,"lon":30.779069900512695}},{"stopId":"5302284","name":"СТ \"Устинка\"","bearing":121,"stopType":1,"address":"Н4122, Приборский сельский Совет","point":{"lat":52.39820968499409,"lon":30.78018593788147}},{"stopId":"1041420","name":"О.Л. Чайка","bearing":249,"stopType":1,"address":"М10, Приборский сельский Совет","point":{"lat":52.38541332938774,"lon":30.81661343574524}},{"stopId":"1042444","name":"О.Л. Чайка","bearing":70,"stopType":1,"address":", Бобовичский сельский Совет","point":{"lat":52.385359482758915,"lon":30.817412734031677}},{"stopId":"1043468","name":"пов. Прибор","bearing":135,"stopType":1,"address":"М10, Приборский сельский Совет","point":{"lat":52.37654495239258,"lon":30.780174255371094}},{"stopId":"1044492","name":"Военная часть","bearing":39,"stopType":1,"address":"Н4110, Приборский сельский Совет","point":{"lat":52.3955741595236,"lon":30.74857246875763}},{"stopId":"1045516","name":"военная часть","bearing":261,"stopType":1,"address":"Пионерская улица, Приборский сельский Совет","point":{"lat":52.398482649021005,"lon":30.75525712966919}},{"stopId":"1046540","name":"Пионер","bearing":70,"stopType":1,"address":"Шоссейная улица, Приборский сельский Совет","point":{"lat":52.400453670745314,"lon":30.764093041419983}},{"stopId":"1047564","name":"Пионер","bearing":255,"stopType":1,"address":"Шоссейная улица, Приборский сельский Совет","point":{"lat":52.40059949005665,"lon":30.76414167881012}},{"stopId":"1048588","name":"Училище","bearing":341,"stopType":1,"address":"улица Мира, Приборский сельский Совет","point":{"lat":52.40442052987968,"lon":30.762994050979614}},{"stopId":"1049612","name":"Училище","bearing":158,"stopType":1,"address":"улица Мира, Приборский сельский Совет","point":{"lat":52.40366600481191,"lon":30.76334297657013}},{"stopId":"1050636","name":"ул. Молодежная","bearing":78,"stopType":1,"address":"Молодёжная улица, Приборский сельский Совет","point":{"lat":52.406185748836776,"lon":30.757543206214905}},{"stopId":"1051660","name":"ул. Молодежная","bearing":247,"stopType":1,"address":"Молодёжная улица, Приборский сельский Совет","point":{"lat":52.406302963121306,"lon":30.75718903541565}},{"stopId":"1052684","name":"Прибор","bearing":0,"stopType":1,"address":"Бобовичская улица, Приборский сельский Совет","point":{"lat":52.40543746948242,"lon":30.753643035888672}},{"stopId":"6067212","name":"пов. Прибор","bearing":66,"stopType":1,"address":"М10, Приборский сельский Совет","point":{"lat":52.376803823151135,"lon":30.783076405525208}},{"stopId":"4970508","name":"Пов.Цыкуны","bearing":166,"stopType":1,"address":"Н4100, Приборский сельский Совет","point":{"lat":52.378168932905524,"lon":30.79156868247986}},{"stopId":"11410444","name":"Поворот ЗЛиН","bearing":295,"stopType":1,"address":"Могилёвская улица, Гомель","point":{"lat":52.45778898409735,"lon":30.919387817382812}},{"stopId":"11411468","name":"Красное школа","bearing":63,"stopType":1,"address":"улица Ленина, Красненский сельский Совет","point":{"lat":52.4710974153066,"lon":30.927497670936585}},{"stopId":"10414092","name":"универсам Облторгсоюза","bearing":240,"stopType":1,"address":"Могилёвская улица, Гомель","point":{"lat":52.46093471394828,"lon":30.934083461761475}},{"stopId":"10415116","name":"Стройматериалы","bearing":244,"stopType":1,"address":"Могилёвская улица, Гомель","point":{"lat":52.45901492077262,"lon":30.927630066871643}},{"stopId":"10416140","name":"Стройматериалы","bearing":62,"stopType":1,"address":"Могилёвская улица, Гомель","point":{"lat":52.459122786724826,"lon":30.928799510002136}},{"stopId":"5292044","name":"Церковь (обр)","bearing":224,"stopType":1,"address":"Новая улица, Красненский сельский Совет","point":{"lat":52.46931536707837,"lon":30.921988413619996}},{"stopId":"10418188","name":"универсам Облторгсоюза","bearing":66,"stopType":1,"address":"Могилёвская улица, Гомель","point":{"lat":52.46110205002317,"lon":30.935188055038452}},{"stopId":"6098956","name":"Красный Богатырь (прям)","bearing":325,"stopType":1,"address":"Могилёвская улица, Гомель","point":{"lat":52.46065485834592,"lon":30.915347264099122}},{"stopId":"6099980","name":"Красный Богатырь (обр.)","bearing":146,"stopType":1,"address":"Могилёвская улица, Гомель","point":{"lat":52.45979783087168,"lon":30.915926456451416}},{"stopId":"4994060","name":"Церковь","bearing":43,"stopType":1,"address":"Н4090, Красненский сельский Совет","point":{"lat":52.46775320713115,"lon":30.919881582260132}},{"stopId":"5006348","name":"Красное школа (пр)","bearing":304,"stopType":1,"address":"улица Ленина, Красненский сельский Совет","point":{"lat":52.47214435527543,"lon":30.922343254089355}},{"stopId":"5007372","name":"Красное школа (обр)","bearing":113,"stopType":1,"address":"улица Ленина, Красненский сельский Совет","point":{"lat":52.47187656718853,"lon":30.922665119171143}},{"stopId":"10369036","name":"Гипермаркет","bearing":253,"stopType":1,"address":"Речицкий проспект, Гомель","point":{"lat":52.40551591096591,"lon":30.918869018554688}},{"stopId":"10373132","name":"Микрорайон \"Давыдовка\"","bearing":74,"stopType":1,"address":"Речицкий проспект, Гомель","point":{"lat":52.40552189244359,"lon":30.92005217075348}},{"stopId":"10433548","name":"Торгово-экономический университет","bearing":162,"stopType":1,"address":"Студенческая улица, Гомель","point":{"lat":52.406402587890625,"lon":30.93611717224121}},{"stopId":"10371084","name":"Микрорайон \"Речицкий\"","bearing":253,"stopType":1,"address":", Гомель","point":{"lat":52.40689430188048,"lon":30.925813243675233}},{"stopId":"10374156","name":"Рынок \"Давыдовский\"","bearing":73,"stopType":1,"address":", Гомель","point":{"lat":52.40701757946701,"lon":30.92755937576294}},{"stopId":"10368012","name":"Торговый дом \"Речицкий\"","bearing":254,"stopType":1,"address":"Речицкий проспект, Гомель","point":{"lat":52.40848490875001,"lon":30.93398118019104}},{"stopId":"10375180","name":"Технический Университет им. Сухого","bearing":73,"stopType":1,"address":"Речицкий проспект, Гомель","point":{"lat":52.40865868061011,"lon":30.935754895210266}},{"stopId":"1132556","name":"Торговый дом \"Речицкий\"","bearing":324,"stopType":1,"address":"Междугородняя улица, Гомель","point":{"lat":52.40932557043279,"lon":30.934294388580323}},{"stopId":"10642444","name":"Университет \"МЧС\"","bearing":253,"stopType":1,"address":"Речицкий проспект, Гомель","point":{"lat":52.40978470584366,"lon":30.940441846847534}},{"stopId":"1133580","name":"ул. Лазурная","bearing":143,"stopType":1,"address":"Междугородняя улица, Гомель","point":{"lat":52.41387526234678,"lon":30.927513360977173}},{"stopId":"1134604","name":"ул. Лазурная","bearing":323,"stopType":1,"address":"Междугородняя улица, Гомель","point":{"lat":52.41436040800211,"lon":30.92718005180359}},{"stopId":"1135628","name":"Завод \"Гомельжелезобетон\"","bearing":148,"stopType":1,"address":"Междугородняя улица, Гомель","point":{"lat":52.418000578990245,"lon":30.922019958496094}},{"stopId":"1136652","name":"Строймаркет KSK","bearing":6,"stopType":1,"address":"Междугородняя улица, Гомель","point":{"lat":52.41924855722113,"lon":30.921419382095337}},{"stopId":"245772","name":"Технический университет","bearing":260,"stopType":1,"address":"проспект Октября, Гомель","point":{"lat":52.40553062665801,"lon":30.944029211997986}},{"stopId":"254988","name":"Парк Фестивальный (отпр)","bearing":205,"stopType":1,"address":"Сосновая улица, Гомель","point":{"lat":52.41048734111463,"lon":30.943289637565613}},{"stopId":"11031564","name":"Парк Фестивальный","bearing":38,"stopType":1,"address":"Сосновая улица, Гомель","point":{"lat":52.41089803197323,"lon":30.943403124809265}}]